"","NAME","Description","Status","Long","Lat","Elev","country","continent","city","pname","citiname","countryname"
"1","Legend - In Operation - January 2017","1,173 Cities - January 2017<br><br>Approximately 1,901,450 public use bicycles and pedelecs in use in these cities.<br>Pedelec: Electric assisted bicycle that must be pedaled for the assistance to engage","operation",-8.701172,-67.187,"0",NA,NA,"Legend","In Operation","Legend","Legend"
"2","Legend - In Planning or Under Construction - January 2017","365 Cities - January 2017","planning",6.679688,-67.067433,"0",NA,NA,"Legend","In Planning or Under Construction","Legend","Legend"
"3","Legend - No Longer Operating - January 2017","141 Cities - January 2017","stopped",20.742188,-67.204032,"0",NA,NA,"Legend","No Longer Operating","Legend","Legend"
"5","A Coruña, Spain - Bicicoruña","http://www.bicicoruna.es/<br>CityBik.es Map (https://citybik.es/map/bicicorunha)<br>150 bikes in 20 station<br>(150 in rotation - 300 total)<br>Operator: The Municipal Housing, Services and Activities Company (EMVSA)","operation",-8.396258,43.37227,"0","Spain","Europe","A Coruña, Spain","Bicicoruña","A Coruña","Spain"
"6","Aachen, Germany - Call a Bike","Call a Bike (http://www.callabike-interaktiv.de/index.php?id=150&f=500&tx_ttnews%5Btt_news%5D=98&tx_ttnews%5BbackPid%5D=139&cHash=7870523828)<br>15 pedelec bikes in 3 automatic stations<br>Launched: August 26, 2011<br>Operator: DB Rent","operation",6.092005,50.769199,"0","Germany","Europe","Aachen, Germany","Call a Bike","Aachen","Germany"
"7","Aalborg, Denmark - City Bikes","City Bikes<br> <br>170 bikes in 21 stations.<br><br> <br>http://www.aalborgbycyklen.dk/default.aspx?m=2&i=48<br> <br>Operator: City of Aalborg<br><br> <br>Coin Operated","operation",9.921341,57.043718,"0","Denmark","Europe","Aalborg, Denmark","City Bikes","Aalborg","Denmark"
"8","Aarhus, Denmark - Aarhus Bycykel","http://www.aarhusbycykel.dk/<br>450 bikes in 52 stations<br>Originally Launched May1, 2005<br>Relaunched: October 31, 2008 with Aarhusmedia<br>http://cibi.dk/<br>","operation",10.211792,56.157023,"0","Denmark","Europe","Aarhus, Denmark","Aarhus Bycykel","Aarhus","Denmark"
"9","Abu Dhabi, United Arab Emirates - ADCB Bikeshare","www.bikeshare.ae<br>O'Brien Bike Share Map: (http://bikes.oobrien.com/abudhabi)<br>CityBik.es Map (https://citybik.es/map/adcb-bikeshare)<br>75 bikes in 11 stations<br>Launch: December 28, 2014<br>Source: http://ow.ly/Gv8Wj & http://www.cyacle.ae/<br>Operator: Cyacle<br>Equipment: 8D","operation",54.6144104,24.498396,"0","United Arab Emirates","Asia","Abu Dhabi, United Arab Emirates","ADCB Bikeshare","Abu Dhabi","United Arab Emirates"
"10","Acquaviva delle Fonti, Italy - BiciViva","BiciViva<br>December 2014: System to be used for education and for international students (http://www.acquavivalive.it/news/Politica/342795/news.aspx)<br>70 bikes in 6 stations<br>Launched May 5, 2012<br>System: Bicincittà<br>(http://www.comune.acquaviva.ba.it/index.php/component/content/article/533)","stopped",16.843629,40.896614,"0","Italy","Europe","Acquaviva delle Fonti, Italy","BiciViva","Acquaviva delle Fonti","Italy"
"11","Agrigento, Sicily, Italy - ","80 pedelecs in 4 station project for 2016<br>Source: http://agrigento.gds.it/2016/09/05/mobilita-in-bicicletta-ad-agrigento-parte-il-progetto-bike-sharing_561096/","planning",13.5844445,37.3095261,"0","Italy","Europe","Agrigento, Sicily, Italy - ","Agrigento, Sicily, Italy - ","Agrigento","Italy - "
"12","Adelaide, South Australia, Australia","June 2016 advocacy for 1,000 bike system<br>Source: http://www.adelaidenow.com.au/messenger/east-hills/bike-sas-grand-vision-for-adelaide-the-states-peak-recreational-cycling-body-outlines-its-priorities/news-story/05750cdfcd68430e2166fd6836d60ddc","planning",138.6048889,-34.921971,"0","Australia","Australia","Adelaide, South Australia, Australia","Adelaide, South Australia, Australia","Adelaide","Australia"
"13","Ahmedabad, Gujarat India - MYBYK","www.mybyk.in (http://www.mybyk.in/)<br>1000 bikes in 4 hubs non station based<br>Pilot testing May 12, 2014<br>Launch scheduled: June 5, 2014","planning",72.58564,23.032031,"0","India","Asia","Ahmedabad, Gujarat India","MYBYK","Ahmedabad","Gujarat India"
"14","Aigio, Greece - Cyclopolis Aigialeias","Suspended 2014 http://aigialeia.cyclopolis.gr/index.php/en/<br>CityBik.es Map (https://citybik.es/map/cyclopolis-aigialeia)<br>45 bicycles in 3 stations<br>Launch: April 12, 2013<br>Source (http://www.silvercity.gr/index.php/podilatonea/188-genika/3417-14)<br>Operator: cyclopolis<br>Equipment: Amco","stopped",22.088013,38.248427,"0","Greece","Europe","Aigio, Greece","Cyclopolis Aigialeias","Aigio","Greece"
"15","Aigle, Switzerland - Publibike","https://www.publibike.ch/en/home.html<br>23 bikes and 4 stations<br>Launched 2010 with 18 bikes in 3 stations as Velopass<br>Operator: PubliBike<br>Third Generation Swipe Card","operation",6.961899,46.314687,"0","Switzerland","Europe","Aigle, Switzerland","Publibike","Aigle","Switzerland"
"16","Aix-en-Provence, France - V'Hello","http://www.vhello.fr/<br><br> <br>Contract terminated May 31,2011 by City Council<br>200 bikes in 16 stations<br>Operator had been JCDecaux CycloCity since 2007","stopped",5.454025,43.527144,"0","France","Europe","Aix-en-Provence, France","V'Hello","Aix-en-Provence","France"
"17","Aksu, Xinjiang, China - Public Bicycle Rental","http://bike.akspub.com/<br>O'Briens Bike Share Map (http://bikes.oobrien.com/aksu/)<br>2,000 bikes in 55 stations<br>Launched: February 6, 2013 with 20 bicycles<br>Planning 500 bikes in 20 stations for 2013 and 1600 bikes in 2014<br>Source (http://news.ts.cn/content/2014-09/15/content_10520972.htm)","operation",80.26577,41.168188,"0","China","Asia","Aksu, Xinjiang, China","Public Bicycle Rental","Aksu","China"
"18","Alba, Italy - Bicincittà","http://www.bicincittabip.com/frmLeStazioni.aspx<br>Video (http://www.youtube.com/watch?v=MI-wNMeux_k)<br>CityBik.es Map (https://citybik.es/map/alba)<br>14 bikes in 9stations.<br>Third Generation Swipe Card<br>Equipment& Operator: Bicincittà","operation",8.035812,44.70185,"0","Italy","Europe","Alba, Italy","Bicincittà","Alba","Italy"
"19","Albacete, Spain - Albabici","www.albabici.es (http://www.albabici.es/)<br>O'Briens Bike Share Map (http://bikes.oobrien.com/albacete/)<br>CityBik.es Map (,https://citybik.es/map/onroll-albacete)<br>120 bikes in 20 stations<br>Launch: June 13, 2014<br>Operator: campos Corporation<br>Replaces Onroll System","operation",-1.857719,38.992238,"0","Spain","Europe","Albacete, Spain","Albabici","Albacete","Spain"
"20","Albacete, Spain - Onroll","http://albacete.onroll.info/<br>System closed for reported upgrade January 2012 to December 2012 - It has not re-opened as of yet.<br>Fleet: 10 stations with 100 bikes<br>System: Onroll<br>Launched: 2009<br><br> <br>SMS message based","stopped",-1.857891,38.993705,"0","Spain","Europe","Albacete, Spain","Onroll","Albacete","Spain"
"21","Albano, Italy - Bikesharing","Pilot Program<br>20 pedelecs bikes in 3 stations<br>Launch June 29, 2013<br>Plans to expand to Ariccia, Castel Gandolfo, and Genzano. communities<br>Source (http://castelli.romatoday.it/albano/avvio-bikesharing-elettrico.html)","operation",12.658653,41.727223,"0","Italy","Europe","Albano, Italy","Bikesharing","Albano","Italy"
"22","Albany, Saratoga, Schenectady and Rensselaer. New York USA","Scheduled to start Summer 2017 in multiple communities as part of the Capital District Transportation Authority using Social Bicycle equipment (https://dailygazette.com/article/2016/12/14/cdta-bike-share-contract-awarded)<br>Cities participated in pilot program in the summer of 2014 (http://www.wopular.com/bike-share-nets-250-users-four-cities)<br>Starting a Feasibility Study 2012<br>Source (http://albanybicyclecoalition.com/2012/09/10/bike-route-signage-strategy-and-bike-sharing-feasibility-study/)","planning",-73.749719,42.650532,"0","United States of America","North America","Albany, Saratoga, Schenectady and Rensselaer. New York USA","Albany, Saratoga, Schenectady and Rensselaer. New York USA","Albany","Schenectady and Rensselaer. New York USA"
"23","Albuquerque, New Mexico USA - Bici","http://zagster.com/abq/<br>75 bikes in 15 stations<br>Launch May 15, 2015<br>as Pilot Program with 65 bikes in 13 stations<br>(2016 Inforgraphic: http://www.mrcog-nm.gov/images/stories/pdf/transportation/bike-pedestrian/Bici_11x17_infographic.pdf)<br>Source: http://www.cabq.gov/mayor/news/albuquerque-to-test-out-first-bike-share-project<br>","operation",-106.5924454,35.1140111,"0","United States of America","North America","Albuquerque, New Mexico USA","Bici","Albuquerque","New Mexico USA"
"24","Alcala de Guadaira, Spain - Tubici","Launched: 2008.<br>Ends 2014<br>4 stations, 75 bikes. <br>Operator: GREEN POWER / ITCL","stopped",-5.847473,37.335224,"0","Spain","Europe","Alcala de Guadaira, Spain","Tubici","Alcala de Guadaira","Spain"
"25","Alcázar de San Juan, Spain - Alcazar Bici","http://www.bicialcazardesanjuan.es/<br>Ends 2014<br>3 stations, 30 bikes.<br>Operator: ITCL<br>Third Generation PIN","stopped",-3.210111,39.389907,"0","Spain","Europe","Alcázar de San Juan, Spain","Alcazar Bici","Alcázar de San Juan","Spain"
"26","Alessandria, Italy - Bicincittà","Service Suspended November 2012 City concidering next steps<br>April 2015: http://acquinews.alessandrianews.it/alessandria/atm-dal-parco-mezzi-inadeguato-bike-sharing-sospeso-106494.htmlhttp://www.bicincitta.com/citta_v3.asp?id=68&pag=1<br>Nine Stations.<br>Third Generation Swipe Card","stopped",8.616199,44.912426,"0","Italy","Europe","Alessandria, Italy","Bicincittà","Alessandria","Italy"
"27","Alicante, Spain - ALABICI",NA,"stopped",-0.48357,38.352628,"0","Spain","Europe","Alicante, Spain","ALABICI","Alicante","Spain"
"28","Algeciras-Cádiz, Spain - Tubici","Ends 2014<br>Launched 2008. <br>3 stations, 50 bikes.<br>","stopped",-5.447159,36.129002,"0",NA,NA,"Algeciras-Cádiz, Spain","Tubici","Algeciras-Cádiz","Spain"
"29","Alghero, Italy - Bicincittà","Issues new tender for program September 2016 (http://www.buongiornoalghero.it/contenuto/0/29/90925/alghero-bando-per-il-bike-sharing)<br>Bicincittà (http://www.bicincitta.com/citta_v3.asp?id=65&pag=2)<br>40 bikes in 5 stations<br>Launch 2013<br>System: Bicincittà<br>Source (http://notizie.alguer.it/n?id=54613)","operation",8.317165,40.558808,"0","Italy","Europe","Alghero, Italy","Bicincittà","Alghero","Italy"
"30","Alhama de Murcia, Spain - Onroll","http://alhamademurcia.onroll.info/<br>System: Onroll<br>Launched: 2009","stopped",-1.426849,37.84829,"0","Spain","Europe","Alhama de Murcia, Spain","Onroll","Alhama de Murcia","Spain"
"31","Aljaraque (Huelva), Spain - Enbici","Ends 2014 Enbici launched 2010. 7 stations, 70 bikes. GREEN POWER / ITCL<br>Source: http://andaluciainformacion.es/costa-occidental/527110/psoe-de-aljaraque-halla-en-estado-lamentable-70-bicis-publicas-retiradas-por-el-anterior-gobierno-del-pp-/","stopped",-7.021294,37.272414,"0","Spain","Europe","Aljaraque (Huelva), Spain","Enbici","Aljaraque (Huelva)","Spain"
"32","Almansa (Albacete), Spain - BiciAlmansa","Launched 2010.<br>Ends 2014<br>3 stations, 50 bikes.<br>Operator: ITCL","stopped",-1.093783,38.870855,"0","Spain","Europe","Almansa (Albacete), Spain","BiciAlmansa","Almansa (Albacete)","Spain"
"33","Almaty, Kazakhstan - Almatybike ","http://almatybike.kz/<br>90 bikes in 37 stations<br>Launch: September 16, 2016<br>to be 270 bikes in 50 Stations<br>adding 2140 bikes in 250 stations in phases<br>14 bikes in 2 stations<br>Pilot<br>Launch: November 6, 2014<br>Operator: Velobike Kazakstan<br>Source:<br>http://bnews.kz/ru/news/post/237793/ & http://tengrinews.kz/kazakhstan_news/velosipedyi-hotyat-sdelat-chastyu-obschestvennogo-transporta-278811/ (https://kapital.kz/gosudarstvo/51472/v-sentyabre-zapustyat-sistemu-veloprokata-almaty-bike.html)","operation",76.9055074,43.2643731,"0","Kazakhstan","Asia","Almaty, Kazakhstan","Almatybike ","Almaty","Kazakhstan"
"34","Almendralejo (Badajoz), Spain - Almendralejo en Bici","http://www.almendralejoenbici.es/Launched 2010.<br>Ends 2014<br>4 stations, 75 bikes. <br>Operator: ITCL","stopped",-6.407433,38.684538,"0","Spain","Europe","Almendralejo (Badajoz), Spain","Almendralejo en Bici","Almendralejo (Badajoz)","Spain"
"35","Almeria (Universidad), Spain - Tubici","Almeria University<br>Ends started 2008","stopped",-2.471924,36.835668,"0","Spain","Europe","Almeria (Universidad), Spain","Tubici","Almeria (Universidad)","Spain"
"36","Alpigano, Italy - BicinComune","Bicincittà (http://www.bicincitta.com/citta_v3.asp?id=28&pag=2)","operation",7.524261,45.095822,"0","Italy","Europe","Alpigano, Italy","BicinComune","Alpigano","Italy"
"37","Altea, Spain - biciAltea","http://bicialtea.labici.net/<br>CityBik.es Map (https://citybik.es/map/bicialtea) 200 bikes in 12 stations<br>Launch: December 12, 2012<br>Operator: Labici<br>System Urbikes","operation",-0.0468206,38.6021822,"0","Spain","Europe","Altea, Spain","biciAltea","Altea","Spain"
"38","Alpharetta, Georgia USA","http://zagster.com/alpharetta/<br>24 bikes in 3 stations<br>Launch: May 9, 2016<br>City council in March 2016 approves funding for 24 bikes in 3 stations<br>Source: http://www.ajc.com/news/news/local/alpharetta-approves-bike-sharing-alcohol-ordinance/nqq3N/","operation",-84.3020439,34.0382223,"0","United States of America","North America","Alpharetta, Georgia USA","Alpharetta, Georgia USA","Alpharetta","Georgia USA"
"39","Amherst, Northampton,  Holyoke, Springfield, Massachusetts USA ","Studying for a Regional Program to serve from Amherst to Springfield for possible 2017 start.","planning",-72.6010895,42.2696876,"0","United States of America","North America","Amherst, Northampton,  Holyoke, Springfield, Massachusetts USA ","Amherst, Northampton,  Holyoke, Springfield, Massachusetts USA ","Amherst","Massachusetts USA "
"40","Amiens, France - Vélam’","http://www.velam.amiens.fr/<br>O'Brien Bike Share Map (http://bikes.oobrien.com/amiens/)<br>CityBik.es map (https://citybik.es/map/velam)<br>313 bikes in 26 stations <br>launched February 2008 <br>Operator: Cyclocity","operation",2.299576,49.896404,"0","France","Europe","Amiens, France","Vélam’","Amiens","France"
"41","Amsterdam, The Netherlands ","<img src=""https://lh6.googleusercontent.com/proxy/PBo8vHfsJhLStO_UZTJSCKoW6UEkoza_bkYSmI5cqIeJK6aTptb6Ax2olKtHQ8fr7Mq-5qr4Pw-boTL9RVvUbtM4gQtuqwKFIfZBNYMM1Y6jp-T9jCNl4R49hR3YlUvbnFP4mbLCrB4tIrpbyNyuc49ErFvzpfWfgYwARRggNYPTxZIUyJhfOpFYFyzlLCnS4g"" height=""200"" width=""auto"" /><br><br>https://urbee.nl/ For the Fall 2016 to pilot a program with 300 pedelecs to expand to 1,150 in spring 2017<br>Source: http://www.duurzaamnieuws.nl/amsterdam-krijgt-elektrische-deelfiets-dankzij-startup-urbee/","planning",4.9002457,52.3739224,"0","Netherlands","Europe","Amsterdam, The Netherlands ","Amsterdam, The Netherlands ","Amsterdam","The Netherlands "
"42","Amsterdam - Schiphol Airport, The Netherlands - Your SchipholBIKE","www.schiphol.nl/yourschipholbike<br>36 bikes in 4 stations<br>Launch: September 24, 2013<br>Equipment: CallLock<br>Source: http://www.dutchdailynews.com/schiphol-introduces-free-bicycle-sharing-scheme/","operation",4.7521877,52.3051724,"0","Netherlands","Europe","Amsterdam","Schiphol Airport, The Netherlands","Amsterdam","Amsterdam"
"43","Amorebieta (Vizcaya), Spain - Amorebiziz","Launched 2009.<br>Ends 2014<br>5 stations, 90 bikes.<br>Operator ITCL/EMAUS","stopped",-2.734705,43.221299,"0","Spain","Europe","Amorebieta (Vizcaya), Spain","Amorebiziz","Amorebieta (Vizcaya)","Spain"
"44","Anaheim, California USA - Bikenation","http://www.bikenationusa.com/rates.aspx <br>All stations removed by end of summer 2013<br>First 2 active stations January 19, 2013<br>Stated that 100 bikes in 10 stations Pilot program Launched: July 21, 2012 <br>System Bike Nation<br>Source (http://www.anaheim.net/administration/PIO/news.asp?id=1420)<br>Source II (http://www.ocregister.com/articles/bike-383621-bicycle-center.html)","stopped",-117.907677,33.831211,"0","United States of America","North America","Anaheim, California USA","Bikenation","Anaheim","California USA"
"45","Andorra la Vella and Les Escaldes, Andorra - Pedaland","www.pedaland.com/<br>16 pedelecs in 4 stations<br>Launch July 25, 2014<br>Operator: FEDA<br>Equipment: Clean Energy Planet<br>Source: http://www.bondia.ad/societat/un-total-de-1895-trajectes-fets-amb-les-bicicletes-de-pedaland","operation",1.5331077,42.5091851,"0","Andorra","Europe","Andorra la Vella and Les Escaldes, Andorra","Pedaland","Andorra la Vella and Les Escaldes","Andorra"
"46","Andria, Italy - Andria in Bici","Program Terminated October 21, 2016<br>(http://andria.news24.city/2016/10/22/sospeso-il-servizio-di-bike-sharing/)<br>Service restored July 5, 2016<br>Service suspended July 1, 2016<br>Bicincittà (http://www.bicincitta.com/citta_v3.asp?id=48&pag=2)<br>CityBik.es Map (https://citybik.es/map/andria)<br>55 bikes in 12 stations (January 2014)<br>Launch: July 3, 2014 (Official re-launch))<br>Equipment: Bicincittà<br>Source (http://www.andrialive.it/news/Attualit%C3%A0/259933/news.aspx)","stopped",16.294785,41.225667,"0","Italy","Europe","Andria, Italy","Andria in Bici","Andria","Italy"
"47","Angers, France - Vélocité+","Vélocité + (http://www.angersloiremetropole.fr/infos-pratiques/mobilites/velo/velocite-plus/index.html)<br>48 bikes<br>Launched March 21, 2011<br>Operator Keolis & EFFIA Transport","operation",-0.556569,47.465084,"0","France","Europe","Angers, France","Vélocité+","Angers","France"
"48","Ann Arbor, Michigan USA - ArborBike","http://arborbike.org (http://arborbike.org/index.html)<br>125 bikes in 13 stations<br>Launch: September 25 2014 <br>Planned 125 bikes in 14 stations by 2015 Source (http://www.mlive.com/news/ann-arbor/index.ssf/2014/08/ann_arbor_bike_share_program_t.html) Name (http://www.mlive.com/news/ann-arbor/index.ssf/2014/02/ann_arbors_new_bike_share_prog.html) Photo (http://wemu.org/post/new-bike-share-program-coming-ann-arbor)<br>Equipment: B-cycle<br>In December 2012 secured federal Congestion Mitigation and Air Quality (CMAQ) funds to develop a system.<br>Source (http://www.lmb.org/index.php?option=com_content&view=article&id=780:ann-arbor-to-launch-bike-sharing-in-2013&catid=144:general-news&Itemid=94)","operation",-83.74496,42.283754,"0","United States of America","North America","Ann Arbor, Michigan USA","ArborBike","Ann Arbor","Michigan USA"
"49","Anji, Zhejiang, China - Anji Public Bicycle","http://bikes.oobrien.com/anji/<br>500 bikes in 60 stations<br>Launched: December 8, 2012<br>Source with video (http://www.hugd.com/xinzixun/2012-12/09/cms259239article.shtml)<br>System: Zuhai Urban Construction Group Co Ltd","operation",119.687419,30.635364,"0","China","Asia","Anji, Zhejiang, China","Anji Public Bicycle","Anji","China"
"50","Ankang Hight Tech Zone, Ankang, Shaanxi, China","220 bikes in 10 station<br>Launch: June 8, 2015<br>Source: (http://shanxi.guhantai.com/2015/0611/791149.shtml)<br>500 bikes in 12 stations planned<br>for 2015<br>Source: http://ankang.hsw.cn/system/2015/0520/11396.shtml","operation",109.012785,32.7036056,"0","China","Asia","Ankang Hight Tech Zone, Ankang, Shaanxi, China","Ankang Hight Tech Zone, Ankang, Shaanxi, China","Ankang Hight Tech Zone","China"
"51","Ankang, Shaanxi, China -Ankang Municipal Bicycle System","600 bikes in 25 stations<br>Launch: June 8, 2016<br>Source: http://news.163.com/16/0529/15/BO8BQI4O00014AEE.html","operation",109.0204239,32.6899541,"0","China","Asia","Ankang, Shaanxi, China -Ankang Municipal Bicycle System","Ankang, Shaanxi, China -Ankang Municipal Bicycle System","Ankang","China -Ankang Municipal Bicycle System"
"52","Anqing, Anhui, China","In November 2015, started planning a<br>700 bicycle in 22 station program<br>Source: http://365jia.cn/news/2015-11-10/8C1D1C0942428AE2.html","planning",117.063446,30.5480698,"0","China","Asia","Anqing, Anhui, China","Anqing, Anhui, China","Anqing","China"
"53","Anqiu, Weifang, Shandong, China","http://www.aqbicycle.com/<br>http://bikes.oobrien.com/weifang<br>2280 bikes in 95 stations <br>Launch: January 3, 2014<br>Source (http://www.wfcmw.cn/html/cmwss/356507.shtml)(http://roll.sohu.com/20131119/n390404221.shtml)","operation",119.220886,36.522329,"0","China","Asia","Anqiu, Weifang, Shandong, China","Anqiu, Weifang, Shandong, China","Anqiu","China"
"54","Ansan, South Korea - Pedal ro","https://www.pedalro.kr/info/aboutUse.do?menuIdx=ab_03&lang=eng<br>1,155 bikes in 46 stations<br>Launched: September 2009","operation",126.813812,37.31666,"0","South Korea","Asia","Ansan, South Korea","Pedal ro","Ansan","South Korea"
"55","Antalya, Turkey - Antbis - Antalya Bisiklet Sistemi","www.antbis.com/default.asp<br>CityBik.es Map (https://citybik.es/map/baksi-antalya)<br>40 bikes in 6 stations<br>Launch August 9, 2014<br>Operator: Baksi Akıllı Bisiklet Sistemleri","operation",30.6882477,36.8873097,"0","Turkey","Europe","Antalya, Turkey","Antbis","Antalya","Turkey"
"56","Antequera, Spain -ENbici","http://antequera.onroll.info/<br>Ends 2014<br>50 bikes in 7 stations<br>Launched April 2010<br>System: Onroll","stopped",-4.563231,37.019927,"0","Spain","Europe","Antequera, Spain -ENbici","Antequera, Spain -ENbici","Antequera","Spain -ENbici"
"57","Antwerp, Belgium - Velo Antwerpen","http://www.velo-antwerpen.be/<br>O'Brien Bike Share Map (http://bikes.oobrien.com/antwerp/)<br>CityBik.es Map (https://citybik.es/map/velo-antwerpen)<br>1,800 bikes in 150 stations (2012)<br>Launch: June 9, 2011 with 1,000 bikes in 85 stations <br>Operator: ClearChannel","operation",4.402771,51.220647,"0","Belgium","Europe","Antwerp, Belgium","Velo Antwerpen","Antwerp","Belgium"
"58","Anxi, Fujian, China - YouBike","https://anxi.youbike.me/cn/index.php<br>1,000 bikes in 33 stations<br>Launch: December 10, 2016<br>Operator & Equipment YouBike<br>Source: http://www.mnw.cn/quanzhou/anxi/xw/1493680.html","operation",118.1878281,25.047814,"0","China","Asia","Anxi, Fujian, China","YouBike","Anxi","China"
"59","Anyang, Henan, China -  anyang Public bicycle Service","3,500 bikes in 160 stations<br>Launch: November 1, 2015<br>(http://news.xinhuanet.com/local/2015-11/02/c_128382551.htm)<br>(December 2015 -Photos: http://www.ha.xinhuanet.com/hnxw/tttp/2015-12/08/c_1117385878.htm)<br>Under construction for November 2015<br>Source: http://roll.sohu.com/20151028/n424368006.shtml","operation",114.3913651,36.1020991,"0","China","Asia","Anyang, Henan, China"," anyang Public bicycle Service","Anyang","China"
"60","Aojiang, Pingyang, Wenzhou, Zhejiang, China -","Underconstruction to launch for Spring Festival 2017 (http://py.66wz.com/system/2017/01/06/012622174.shtml) Palnning Construction before end of 2015 a program of 1500 bikes in 50stations<br>Source: http://py.66wz.com/system/2015/11/13/012187338.shtml","planning",120.5591583,27.5944134,"0","China","Asia","Aojiang, Pingyang, Wenzhou, Zhejiang, China -","Aojiang, Pingyang, Wenzhou, Zhejiang, China -","Aojiang","China -"
"61","Apeldoorn, Ede &amp; Harderwijk, Netherlands - Keobike","<img src=""https://lh4.googleusercontent.com/8JxGDw8SILcZ9qPLUM5u2tO9TjKaGcTp81NxONW1OZqvbXIDr_8HKMCbWNdBeQvKf0fxOnkgeQHhmYGDmecaDlO-_kyzo1tlL49ysuYVG9-SS8C3UcFaZP2m_1LgWdg5"" height=""200"" width=""auto"" /><br><br>https://www.syntusgelderland.nl/reisinformatie/keobike<br>60 bikes in 5 stations<br>(Apeldoorn)<br>Launch: December 11, 2016<br>Operator: Syntus/Keolis<br>Equipment: Mobilock- van Moof<br>Source: http://www.fietsberaad.nl/index.cfm?section=nieuws&lang=nl&mode=detail&newsYear=2016&repository=Syntus+ontwikkelt+eigen+fietsdeelsysteem","operation",5.9686661,52.2115513,"0","Netherlands","Europe","Apeldoorn, Ede &amp; Harderwijk, Netherlands","Keobike","Apeldoorn","Netherlands"
"62","Aquascalientes, Aquascalintes, Mexico","2015 Considering","planning",-102.2916412,21.8793411,"0","Mexico","South America","Aquascalientes, Aquascalintes, Mexico","Aquascalientes, Aquascalintes, Mexico","Aquascalientes","Mexico"
"63","Aracuja, Sergipe, Brazil - Caju Bike","<img src=""https://lh3.googleusercontent.com/proxy/r0ti83IjF6FPu-fplEbUqEp9PY3HfMgNQR_bId5R8itF3_lRLtS84gWIYsj4G1aRtF4IWctjZ3D8ltmxLjTR-MDXTyq-3ARbjzel8561hWDmI5r6ubQ1tlIuQTAp4T4CWRlLJ5M"" height=""200"" width=""auto"" /><br><br>www.cajubike.com<br>CityBik.es Map (https://citybik.es/map/cajubike)<br>50 bikes in 5 stations<br>Launch: March 30, 2014 Source (http://www.infonet.com.br/cidade/ler.asp?id=156460)<br>Will have 20 to 25 stations with 10 to 15 bikes each. Completed tender process Serttel was the only respondant.<br><br>Source (http://www.infonet.com.br/noticias/ler.asp?id=154649) II","operation",-37.069244,-10.90647,"0","Brazil","South America","Aracuja, Sergipe, Brazil","Caju Bike","Aracuja","Brazil"
"64","Aranda de Duero, Spain - Aranbici","http://arandadeduero.onroll.info/<br>Citybik.es Map (https://citybik.es/map/onroll-aranda-de-duero)<br>30 bikes in 6 stations<br>Launched 2011<br>System: Onroll","operation",-3.692865,41.663615,"0","Spain","Europe","Aranda de Duero, Spain","Aranbici","Aranda de Duero","Spain"
"65","Aranjuez, Spain - Aranbike","http://www.aranbike.es/index.php/date-de-alta.html<br>CityBik.es Map (https://citybik.es/map/onroll-aranjuez)<br>25 bikes in 8 stations<br>Launched 2009<br>System: Onroll","operation",-3.606691,40.031098,"0","Spain","Europe","Aranjuez, Spain","Aranbike","Aranjuez","Spain"
"66","Arezzo, Italy - ARbike","(http://www.bicincitta.com/citta_v3.asp?id=61&pag=2)<br>CityBik.es Map (https://citybik.es/map/arbike)<br>Photo (http://www.facebook.com/photo.php?fbid=10150210339421823&set=a.8086461822.24231.8085941822&theater)<br>60 bikes in 6 stations<br>Launched March 21, 2011<br>Operator: Bicincittà","operation",11.882143,43.465566,"0","Italy","Europe","Arezzo, Italy","ARbike","Arezzo","Italy"
"67","Archea Olimpia, Greece - Cyclopolis Archea Olympia ","Planning 50 bikes in 4 stations for April 2013Source (http://www.silvercity.gr/index.php/podilatonea/188-genika/3417-14)","planning",21.625471,37.645262,"0","Greece","Europe","Archea Olimpia, Greece","Cyclopolis Archea Olympia ","Archea Olimpia","Greece"
"68","Armenia, Quindío, Columbia","In February 2016, makes an agreement with the City Of Pisa Italy to facilitate the creation of a system.<br>It is to start in the first third of 2017<br>Source: http://caracol.com.co/emisora/2016/02/28/armenia/1456679350_939874.html<br>Designated a city for a pilot public bicycle program for 2016 by the Transportation Ministry Source: http://www.cronicadelquindio.com/noticia-noticia_opinion-seccion-opinion-titulo-que_ruede_la_bici-op-14691","planning",-75.6752872,4.5351426,"0","Colombia","South America","Armenia, Quindío, Columbia","Armenia, Quindío, Columbia","Armenia","Columbia"
"69","Armilla, Spain - Tubici","Tubici launched 2008 Ends 2014 . 4 stations, 75 bikes. GREEN POWER / ITCL","stopped",-3.617935,37.140067,"0","Spain","Europe","Armilla, Spain","Tubici","Armilla","Spain"
"70","Asan, South Korea - UBike","http://bike.u-asan.or.kr/ubike_main.do<br>90 bikes in 11 stations<br>Launch: May 2011","operation",127.003112,36.781053,"0","South Korea","Asia","Asan, South Korea","UBike","Asan","South Korea"
"71","Ascoli Piceno, Italy - Bicincittà","Bicincittà (http://bicincitta.tobike.it/frmLeStazioni.aspx?ID=53)<br>CityBik.es Map (https://citybik.es/map/ascoli-piceno)<br>20 bikes in 5 Stations<br>Launched: Summer 2012 as pilot<br>re-launch: July 10, 2013<br>System: Bicincittà","operation",13.578844,42.855267,"0","Italy","Europe","Ascoli Piceno, Italy","Bicincittà","Ascoli Piceno","Italy"
"72","Aspen, Basalt, &amp; Willets, Colorado USA - WE-cycle","www.we-cycle.org (http://www.we-cycle.org)<br>O'Brien Bike Share Map (http://bikes.oobrien.com/aspen/)<br>CityBik.es Map (https://citybik.es/map/we-cycle)<br>190 bikes in 43 stations<br>Launch June 5, 2013 with 100 bikes in 16 stations<br>Equipment: Public Bicycle Systems Company Source (http://www.aspentimes.com/article/20121207/NEWS/121209889)","operation",-106.815391,39.189325,"0","United States of America","North America","Aspen, Basalt, &amp; Willets, Colorado USA","WE-cycle","Aspen","Colorado USA"
"73","Astana, Kazakhstan - Astana Bike","www.velobike.kz (http://www.velobike.kz/?lang=en)<br>CityBik.ed Maps (https://citybik.es/map/velobike)<br>1,800 bikes in 150 stations (April 2016 http://astanatimes.com/2016/04/rental-bike/)<br>Launch: July 7, 2014 with 200 bikes in 42 stations<br>Equipment: Smoove","operation",71.424179,51.134124,"0","Kazakhstan","Asia","Astana, Kazakhstan","Astana Bike","Astana","Kazakhstan"
"74","Asti, Italy - GIMME BIKE","City ends service December 2014 http://www.lastampa.it/2014/12/03/edizioni/asti/il-comune-vi-mette-le-ruote-lfbqNhyL8V04j9rGZ2Ze7I/pagina.html <br>25 bikes in 4 stations<br>Launched; September 11, 2008<br>operator: Bicincitta'<br>System: Bicincitta<br>http://www.bicincitta.com/citta_v3.asp?id=41&pag=2<br>Source (http://www.lanuovaprovincia.net/stories/ambiente/23743_torna_il_bike_sharing_25_bici_in_citt/) Source II (http://www.lanuovaprovincia.it/stories/politica/28347_bike_sharing_al_palo_il_comune_pensa_a_contributi_per_chi_acquista_una_bici/)","stopped",8.206787,44.901119,"0","Italy","Europe","Asti, Italy","GIMME BIKE","Asti","Italy"
"75","Asuncion, Paraguay - ","In November 2016, City Councilman introduces bill to begin process for a public use bicycle program<br>Source: http://www.paraguay.com/nacionales/presentan-proyecto-para-implementar-bicicletas-publicas-153649","planning",-57.6336765,-25.2825751,"0","Paraguay","South America","Asuncion, Paraguay - ","Asuncion, Paraguay - ","Asuncion","Paraguay - "
"76","Athens (Maroussi District) Greece - Cyclopolis Maroussi","http://maroussi.cyclopolis.gr/index.php/en/<br>O'Briens Bike Share Map (http://bikes.oobrien.com/athensmaroussi/)<br>CityBik.es Map (https://citybik.es/map/cyclopolis-maroussi)<br>70 bikes in 6 stations<br>Launch: April 26, 2013<br>Source (http://www.silvercity.gr/index.php/podilatonea/188-genika/3417-13)<br>Operator: Cyclopolis","operation",23.807116,38.055323,"0","Greece","Europe","Athens (Maroussi District) Greece","Cyclopolis Maroussi","Athens (Maroussi District) Greece","Athens (Maroussi District) Greece"
"77","Athens (Muscat and Taurus Communities) Greece - Cyclopolis","Suspended July<br>http://moschatotavros.cyclopolis.gr/index.php/en/<br>CityBik.es Map (https://citybik.es/map/cyclopolis-moschatotavros)<br>60 bikes in 5 stations<br>Launched June 10, 2013<br>Operator: Cyclopolis","stopped",23.67691,37.94589,"0","Greece","Europe","Athens (Muscat and Taurus Communities) Greece","Cyclopolis","Athens (Muscat and Taurus Communities) Greece","Athens (Muscat and Taurus Communities) Greece"
"78","Athens (Neas Smyrnis District) Greece - Cyclopolis Neas Smyrnis","http://neasmyrni.cyclopolis.gr/index.php/en/<br>CityBik.es Map (https://citybik.es/map/cyclopolis-neasmyrni)<br>45 bikes in 3 stations <br>Launch: April, 23, 2013<br>Source (http://www.silvercity.gr/index.php/podilatonea/188-genika/3417-13)<br>Operator Cyclopolis","operation",23.712444,37.943656,"0","Greece","Europe","Athens (Neas Smyrnis District) Greece","Cyclopolis Neas Smyrnis","Athens (Neas Smyrnis District) Greece","Athens (Neas Smyrnis District) Greece"
"79","Athens, Technopolis, Greece - AthensBikes","http://athens.easybike.gr/<br>10 bikes in 1 station<br>Launch: March 3, 2016<br>Plans to expand to cove more of central athens<br>Operator: EasyBike<br>Equipment: EasyBike","operation",23.7134528,37.9773059,"0","Greece","Europe","Athens, Technopolis, Greece","AthensBikes","Athens","Greece"
"80","Athens, (Keratsini-Drapetsona District) Greece - EasyBike Keratsini-Drapetsona","Contract wends 2015<br>http://keratsini-drapetsona.easybike.gr/el/<br>CityBik,es Map (https://citybik.es/map/easybike-drapetsona)<br>70 Bikes in 6 Stations<br>Launch: March 22, 2013<br>Operator: EasyBike <br>Equipment EasyBike - CallLock <br>Source (http://eubooce.gr/2013/01/30/erxontai-ta-koinoxrista-podilata/)","stopped",23.625262,37.94726,"0",NA,NA,"Athens, (Keratsini-Drapetsona District) Greece","EasyBike Keratsini-Drapetsona","Athens","(Keratsini-Drapetsona District) Greece"
"81","Atlanta, Georgia USA - Viacycle@GT","https://gt.viacycle.com/<br>Ended July 7, 2013<br>Pilot Program at Georgia Institute of Technology - Not Public<br>35 bikes in 4 stations (mobile phone access)<br>Launched: November 14, 2011","stopped",-84.3966721,33.7754375,"0","United States of America","North America","Atlanta, Georgia USA","Viacycle@GT","Atlanta","Georgia USA"
"82","Atlanta, Georgia, USA -Relay","http://relaybikeshare.com/<br>100 bikes in 10 stations<br>Launch: June 9, 2016<br>Plans for 500 bike in 57 station program for 2016<br>Source (http://www.atlantaintownpaper.com/2014/01/20144/)<br>(http://commuting.blog.ajc.com/2016/06/08/atlantas-bike-share-program-begins-thursday/)<br>Operator; Cyclehop<br>Equipment; Social Bicycles","operation",-84.387832,33.749321,"0","United States of America","North America","Atlanta, Georgia, USA -Relay","Atlanta, Georgia, USA -Relay","Atlanta","USA -Relay"
"83","Auckland, New Zealand - Nextbike","Suspended service November 10, 2010<br>Company sites not enough revenue.<br>It had 170 bikes<br>Launched: 2008","stopped",174.755402,-36.871931,"0","New Zealand","Australia","Auckland, New Zealand","Nextbike","Auckland","New Zealand"
"84","Auckland, New Zealand - New nextbike","http://nextbike.co.nz/<br>CityBik.es Map (https://citybik.es/map/nextbike-auckland)<br>Re-deployement 10 bikes in 3 stations re-launch October 16, 2013: Source","operation",174.748535,-36.897194,"0","New Zealand","Australia","Auckland, New Zealand","New nextbike","Auckland","New Zealand"
"85","Augsburg, Germany - swaRad","http://www.swa-rad.de/de/augsburg/<br>O'Brien Bike ShareMap (http://bikes.oobrien.com/augsburg/)<br>CityBik.es Map (https://citybik.es/map/nextbike-augsburg)<br>150 bikes in 30 stations<br>Launched: 2011 with 110 bikes in 14 stations<br>Operator: nextbike GmbH<br>Originally mobile phone operated.<br>(https://www.trendyone.de/news/150-neue-fahrr%C3%A4der-zum-ausleihen)","operation",10.898523,48.364632,"0","Germany","Europe","Augsburg, Germany","swaRad","Augsburg","Germany"
"86","Aurora, Illinois USA -Zagster","http://bike.zagster.com/aurora-il/<br>18 bikes in 3 stations<br>Launch: June 29, 2016<br>Issues a Tender for a Public Bicycle program in March 2016.<br>Source: http://zagster.com/press/zagster-brings-bike-sharing-to-aurora-illinois/","operation",-88.3166885,41.7604605,"0","United States of America","North America","Aurora, Illinois USA -Zagster","Aurora, Illinois USA -Zagster","Aurora","Illinois USA -Zagster"
"87","Austin, Texas USA - Austin B-cycle","http://austin.bcycle.com/ <br>O'Brien Bike Share Map (http://bikes.oobrien.com/austin/)<br>CityBik.es Map (https://citybik.es/map/austin)<br>409 bikes in 57 stations <br>Launch December 21, 2013 with 110 bikes in 11 stations Source (http://www.kxan.com/news/local/austin/bike-share-program-to-launch-next-month)<br>Planning a minimum of 400 bikes in a minimum of 40 stations for March 2014","operation",-97.743902,30.273375,"0","United States of America","North America","Austin, Texas USA","Austin B-cycle","Austin","Texas USA"
"88","Avenches, Switzerland- Publibike","https://www.publibike.ch/en/home.html<br>9 bikes<br>and 8 pedelecs in 2 station<br>Launched: 2011 as Velopass<br>Operator :Publibike","operation",7.04155,46.8802,"0","Switzerland","Europe","Avenches, Switzerland- Publibike","Avenches, Switzerland- Publibike","Avenches","Switzerland- Publibike"
"89","Aventura, Florida USA - Aventura B-cycle","https://aventura.bcycle.com/<br>30 bikes in 5 stations<br>Launch: September 8, 2016<br>Source: https://www.facebook.com/events/289215214796221/<br>Operator: Broward County B-cycle<br>Equipment: B-cycle 2.0","operation",-80.1377106,25.9554208,"0","United States of America","North America","Aventura, Florida USA","Aventura B-cycle","Aventura","Florida USA"
"90","Aversa, Italy - Bicincittà","Bicincittà (http://www.bicincitta.com/default.asp) Launched: November 2011","operation",14.211502,40.973094,"0","Italy","Europe","Aversa, Italy","Bicincittà","Aversa","Italy"
"91","Avignon, France - Velopop","http://www.velopop.fr/<br>O'Briens Bike Share Map (http://bikes.oobrien.com/avignon/)<br>CityBik.es map (https://citybik.es/map/velopop)<br>200 bikes & 20 stations<br>launched: July 15, 2009<br>Operator: The Public Transit Company<br>System: Smoove","operation",4.806347,43.948709,"0","France","Europe","Avignon, France","Velopop","Avignon","France"
"92","Avilés y Castrillón, Spain - enbici","http://www.avilesenbici.es/<br>60 bikes<br>in 5 staitons in Avilés<br>Oringinal launched in 2007 Source (http://www.elcomercio.es/v/20130520/aviles/bicicletas-publicas-cada-utilizan-20130520.html)<br>System: ITCL<br>Launched: 2009","operation",-5.920966,43.557101,"0","Spain","Europe","Avilés y Castrillón, Spain","enbici","Avilés y Castrillón","Spain"
"93","Azuqueca de Henares (Guadalajara), Spain - Biciudad","Launched 2009.<br>Ends 2014<br>3 stations, 50 bikes. <br>Operator: ITCL","stopped",-3.268218,40.565655,"0","Spain","Europe","Azuqueca de Henares (Guadalajara), Spain","Biciudad","Azuqueca de Henares (Guadalajara)","Spain"
"94","Bad Deutsch Altenburg, Hainburg, Petronell-Carnintum (Römerland), Austria - Nextbike- Leihradl","www.nextbike.at<br>CityBik.es map (https://citybik.es/map/nextbike-romerland)<br>32 bikes in 8 stations<br>Launched : 2008<br>Operator: Nextbike/Leihradl<br>Equipment: Nextbike","operation",16.9085598,48.1328715,"0","Austria","Europe","Bad Deutsch Altenburg, Hainburg, Petronell-Carnintum (Römerland), Austria","Nextbike- Leihradl","Bad Deutsch Altenburg","Austria"
"95","Badajoz, Spain - BiBi Bicicletas Públicas de Badajoz","http://badajoz.onroll.info/<br>CityBik.es Map (https://citybik.es/map/onroll-badajoz)<br>350 bikes and 26 stations (January 2014)<br>Source (http://www.hoy.es/v/20140114/badajoz/servicio-bicicletas-incorporara-este-20140114.html)<br>Launched 2009 with 100 bikes in 11 stations<br>Operator: The Municipality & Minister of Industry, Energy and Environment<br>Equipment: Onroll","operation",-6.970825,38.885688,"0","Spain","Europe","Badajoz, Spain","BiBi Bicicletas Públicas de Badajoz","Badajoz","Spain"
"96","Baeza, Spain - ENbici","http://baeza.onroll.info/<br>Ends 2014<br>System: Onroll<br>Fleet: 5 stations and 25 bikes<br><br>Launched: 2009","stopped",-3.469276,37.993728,"0","Spain","Europe","Baeza, Spain","ENbici","Baeza","Spain"
"97","Baku, Azerbaijan - nextbike","www.nextbike.de<br><br><br> <br>5 bikes in 1 Stations<br>Launched: 2012","operation",49.847589,40.381173,"0","Azerbaijan","Europe","Baku, Azerbaijan","nextbike","Baku","Azerbaijan"
"98","Balaton Lake District, Hungary ","Planning for 2013-2014, 200 bike in 11 stations around the northern area of the lake Source (http://www.itlgroup.eu/magazine/index.php?option=com_content&view=article&id=3849:il-bike-sharing-arriva-sul-lago-balaton&catid=46:turismo&Itemid=107)","planning",18.001099,47.044861,"0","Hungary","Europe","Balaton Lake District, Hungary ","Balaton Lake District, Hungary ","Balaton Lake District","Hungary "
"99","Balestrate, Italy - youbike","27 pedelecs in 3 stations<br>Launch June 25, 2016<br>Operator: Stella Rentals<br>Source: http://www.teleoccidente.it/wp/2016/06/25/balestrate-inaugurate-le-ciclo-stazioni-di-bike-sharing/","operation",13.0045509,38.0517916,"0","Italy","Europe","Balestrate, Italy","youbike","Balestrate","Italy"
"100","Bahia Blanca, Argentina","To issues in July 2013 a tender offer for bike share system Source (http://www.adnbahiablanca.com.ar/m-info.asp?id=12503&idcat=1&idsub=48)","planning",-62.249908,-38.713911,"0","Argentina","South America","Bahia Blanca, Argentina","Bahia Blanca, Argentina","Bahia Blanca","Argentina"
"101","Baltimore, Maryland USA - Bmore  Bikeshare","https://www.bmorebikeshare.com/<br>200 pedelecs in 20 stations<br>Launch: October 28, 2016<br>300 more bikes in 30 more stations for Spring 2017.<br>City entered contract in 2016 with Bewegen.com for 300 bikes and 200 pedelecs in 50 stations (http://www.baltimoresun.com/news/maryland/baltimore-city/bs-md-ci-bike-share-contract-20160314-story.html)(http://www.bizjournals.com/baltimore/news/2016/08/19/baltimores-first-bike-share-rentals-coming-in.html?ana=fbk)<br>Once again to issue a tender in September 2015 (http://www.wbaltv.com/news/baltimore-seeking-proposal-for-bike-sharing-program/35153026 )<br>Originally planned Launch for July 1, 2014<br>Source (http://www.baltimoremagazine.net/bikeshorts/2014/02/new-bicycle-supplier-picked-for-charm-city-bikeshare)<br>250 Bicycle network in 30 stations.","operation",-76.613245,39.286317,"0","United States of America","North America","Baltimore, Maryland USA","Bmore  Bikeshare","Baltimore","Maryland USA"
"102","Balneário Camboriú, Santa Catarina, Brazil","City announces in May 2016 that it will deploy 300 bikes in 30 stations will issue tender in July 2016<br>Source: http://dc.clicrbs.com.br/sc/noticias/noticia/2016/05/edital-preve-300-bicicletas-compartilhadas-em-balneario-5803666.html","planning",-48.632226,-26.9955517,"0","Brazil","South America","Balneário Camboriú, Santa Catarina, Brazil","Balneário Camboriú, Santa Catarina, Brazil","Balneário Camboriú","Brazil"
"103","Bandung, West Java, Indonesia -Bike Bandung","http://bikebdg.com/<br>90 bikes in 6 shelters<br>(manned)<br>Launched June 10, 2012","stopped",107.613916,-6.89294,"0","Indonesia","Asia","Bandung, West Java, Indonesia -Bike Bandung","Bandung, West Java, Indonesia -Bike Bandung","Bandung","Indonesia -Bike Bandung"
"104","Bandung, West Java, Indonesia - Boseh","Program planned for 2017 with 250 bikes in 30 stations (https://e27.co/bandung-to-get-city-wide-bike-sharing-system-first-in-indonesia-20161223/) Mayor announces in April 2016 the city needs<br>an automated IT program to replace the terminated manned program<br>Possible investment for 700 bike 70 station project (http://www.merdeka.com/peristiwa/bangun-bandung-bike-sharing-ridwan-kamil-gaet-singapura.html?utm_source=dlvr.it&utm_medium=twitter)<br>Source: http://bandung.merdeka.com/pariwisata/bike-sharing-dengan-konsep-elektronik-akan-segera-hadir-di-bandung-160427u.html","planning",107.6019859,-6.9150945,"0","Indonesia","Asia","Bandung, West Java, Indonesia","Boseh","Bandung","Indonesia"
"105","Bangalore, India - Namma Cycles","Planning Pilot Program on the Indian Institute of Science Campus as an incubator for a city-wide program for maybe 2013.<br>Source (http://www.nammacycle.in/?p=115)<br>Pilot Program October 2011 -December 2012 ATCAG 3 stations Source (http://www.kerberonautomations.com/atcag.html)","planning",77.56721,13.022621,"0","India","Asia","Bangalore, India","Namma Cycles","Bangalore","India"
"106","Bangkok, Thailand - Pun Pun","www.punpunbikeshare.com<br>CityBik.es Map (https://citybik.es/map/punpunbikeshare)<br>500 bikes in 50 stations<br>Official launch: May 1, 2013 with 100 bikes in 12 stations Source (http://www.richardbarrow.com/2013/04/bicycle-rental-service-to-launch-in-bangkok-on-1-may-2013/) Source II (http://www.bangkokpost.com/lifestyle/interview/366555/i-want-to-ride-my-bicycle)<br>Pilot Launch: October 28, 2012 Video (http://www.youtube.com/watch?v=Qdh_9mbSrW4&feature=youtu.be) I Video II (http://www.youtube.com/watch?v=-er_Z8TtGYw&feature=player_embedded#t=3)<br>32 bike pilot in 2 stations<br>Before Pun Pun was Bangkok Green Bikes a manned program - video: https://www.youtube.com/watch?t=109&v=39iREQ0j7Qs","operation",100.530224,13.733215,"0","Thailand","Asia","Bangkok, Thailand","Pun Pun","Bangkok","Thailand"
"107","Baoji, Shaanxi, China - Baoji City Public Bicycle LLC","2,000 bikes in 100 stations in phase 1 <br>Launch: September 10, 2013<br>to expand to 3,000 bikes in phase 2 and then to 10,000 bikes in phase 3Source (http://news.163.com/13/0909/03/98A6D4UV00014Q4P.html):","operation",107.228622,34.370645,"0","China","Asia","Baoji, Shaanxi, China","Baoji City Public Bicycle LLC","Baoji","China"
"108","Barcelona, Spain - Vodafone-Bicing","http://bicing.com/<br>OBrien Bike Share Map (http://bikes.oobrien.com/?city=barcelona)<br>CityBik.es Maps (https://citybik.es/map/bicing) 6,000 bikes in 420 stations<br>Launched: March 2007<br>(For Residents Only)<br>Operator The City of Barcelona and Clear Channel","operation",2.177139,41.3772267,"0","Spain","Europe","Barcelona, Spain","Vodafone-Bicing","Barcelona","Spain"
"109","Barcellona Pozzo di Gotto, Italy - Bicincittà","CityBik.es Map (https://citybik.es/map/longanoinbici)<br>50 bikes in 6 stations<br>Launch October 19, 2013<br>Equipment and operator :Bicincittà<br>Source (http://goo.gl/BeKAHC) Source (http://www.24live.it/42806-collaudato-limpianto-di-bike-sharing-entro-agosto-sara-attivo) II","operation",15.212116,38.156832,"0","Italy","Europe","Barcellona Pozzo di Gotto, Italy","Bicincittà","Barcellona Pozzo di Gotto","Italy"
"110","Bari, Italy - BarinBici","Issues New Tender October 18, 2016 for 150 bikes and 50 pedelecs in 34 stations. July 2016 system suspended for new contract in the fall (http://www.baritoday.it/cronaca/bikesharing-comune-amtab-attesa-nuovo-servizio.html)<br>http://bicincitta.com/citta.asp?id=9<br>CityBik.es Map (https://citybik.es/map/bariinbici)<br>200 bikes in 30 stations (May 2014)<br>Replacing system (http://corrieredelmezzogiorno.corriere.it/bari/notizie/cronaca/2014/23-gennaio-2014/bike-sharing-il-flop-bari-ci-riproval-amtab-utilizza-biciclette-anti-vandali-2223963260485.shtml)Source (http://bariapedali-bari.blogautore.repubblica.it/2014/05/21/bike-sharing-il-comune-ci-riprova-arrivano-200-nuove-bici/)<br>64 bikes in 30 stations (Jan. 2014)<br>Launched September 2007 with 125 bikes in 30 stations (max. 335 bikes in 30 Stations)<br>System: Bicincittà","planning",16.869678,41.127599,"0","Italy","Europe","Bari, Italy","BarinBici","Bari","Italy"
"111","Barletta, Italy - Bicincittà","Bicincittà (http://www.bicincitta.com/citta_v3.asp?id=72&pag=2)<br>25 bikes in 4 stations<br><br> <br>System:Bicincittà","operation",16.284056,41.319785,"0","Italy","Europe","Barletta, Italy","Bicincittà","Barletta","Italy"
"112","Barranquilla, Colombia - SIBAQ","Mejor en Bici November 30, 2016<br>Starts a manned pilot program with 79 bikes in December 2015<br>Mayor call for program in 2016<br>Source: (http://www.elheraldo.co/barranquilla/bicicletas-publicas-ruedan-otra-vez-en-barranquilla-308008) http://www.elheraldo.co/local/barranquilla-tendra-bicicletas-publicas-finales-de-ano-alcaldesa-218518 ","operation",-74.7835922,10.9887165,"0","Colombia","South America","Barranquilla, Colombia","SIBAQ","Barranquilla","Colombia"
"113","Basel, Switzerland - Publibike","https://www.publibike.ch/en/home.htm (https://www.publibike.ch/en/home.html)l<br><br>6 bikes in 1 station<br>Launched December 2011<br>Operator: Postbus","operation",7.593527,47.546756,"0","Switzerland","Europe","Basel, Switzerland","Publibike","Basel","Switzerland"
"114","Bassano del Grappa, Italy - Bicincitta'","http://www.bicincitta.com/citta_v3.asp?id=45&pag=2 <br>CityBik.es Map (https://citybik.es/map/bassanodelgrappa)<br>12 bikes in 5 stations (April 2015 http://www.ilgiornaledivicenza.it/stories/Home/1121002_bicincitt__al_capolinea_inutile_e_costa_troppo/)<br>Launch March 16, 2009 with 60 bikes in 5 stations<br>Operator: Bicincitta'","operation",11.734085,45.764409,"0","Italy","Europe","Bassano del Grappa, Italy","Bicincitta'","Bassano del Grappa","Italy"
"115","Bath, England, UK- Bike in Bath","Service Suspended September 2013<br>http://www.bikeinbath.com/<br>Photo (http://www.facebook.com/photo.php?fbid=10150387472241823&set=a.8086461822.24231.8085941822&type=1&theater)<br>OBrien Bike Share Map (http://bikes.oobrien.com/?city=bath)<br>58 bikes in 4 Stations<br>Starts September 15, 2011<br>Operator: Bicincittà","stopped",-2.360516,51.380674,"0","United Kingdom","Europe","Bath, England, UK- Bike in Bath","Bath, England, UK- Bike in Bath","Bath","UK- Bike in Bath"
"116","Bath, England, UK - Nextbike","www.nextbike.co.uk/en/bath/ <br>O'brien Bike Share Map (http://bikes.oobrien.com/bath/)<br>CityBik.es Map (https://citybik.es/map/nextbike-bath)<br>120 bikes in 12 stations<br>Launch: June 17, 2014<br>New Operator: Nextbike<br>Source (https://www.transportxtra.com/magazines/local_transport_today/news/?id=36329)<br>Replaces the suspended Bike in Bath progrqam for Spring 2014","operation",-2.357082,51.3789597,"0","United Kingdom","Europe","Bath, England, UK","Nextbike","Bath","UK"
"117","Bathurst, New South Wales, Australia","In June 2016 considering a program<br>Source; http://www.abc.net.au/news/2016-06-22/bathurst-forges-ahead-with-plans-to-become-cycling-hub/7532052","planning",149.5786858,-33.4186903,"0","Australia","Australia","Bathurst, New South Wales, Australia","Bathurst, New South Wales, Australia","Bathurst","Australia"
"118","Baton Rouge, Louisiana USA","Awarded grant to study bike share program feasibility in January 2015<br>Source: http://theadvocate.com/news/acadiana/11464083-123/ebr-awarded-bike-sharing-grant","planning",-91.1858368,30.4466018,"0","United States of America","North America","Baton Rouge, Louisiana USA","Baton Rouge, Louisiana USA","Baton Rouge","Louisiana USA"
"119","Battle Creek, Michigan USA - B-cycle","https://battlecreek.bcycle.com/home.aspx<br>ityBik.es map (https://citybik.es/map/battlecreek)<br> 13 bikes in 3 stations<br>Launch: August 2013Source<br>(http://www.battlecreekenquirer.com/story/news/local/2015/06/17/third-bicycle-sharing-station-opens-kcc/28872301/)(http://www.battlecreekenquirer.com/article/20130816/NEWS01/308160031/B-C-meet-B-cycle?nclick_check=1)","operation",-85.180779,42.325047,"0","United States of America","North America","Battle Creek, Michigan USA","B-cycle","Battle Creek","Michigan USA"
"120","Batumi, Georgia - Batumivelo","http://cli-velo-batumi.gir.fr/<br>CityBik.es Map (https://citybik.es/map/batumvelo)<br>120 bikes in 10 stations in 2011<br>Launched: July 2011<br>Operator: Batumi City Government<br>equipment<br>Smoove<br>Photo (http://www.facebook.com/photo.php?fbid=10150305141131823&set=a.87800971822.102951.8085941822&type=1&theater)","operation",41.646209,41.654894,"0",NA,NA,"Batumi, Georgia","Batumivelo","Batumi","Georgia"
"121","Bayonne - Anglet - Ciboure, France - Cyclocom","cyclocom.fr<br><br>300 Bicycles<br><br>Operator: Cyclocom","operation",-1.483154,43.493779,"0","France","Europe","Bayonne","Anglet","Bayonne","Bayonne"
"122","Bayonne, New Jersey USA","Considering in December 2016 a program to link with regional rail system Source: http://www.nj.com/hudson/index.ssf/2016/12/bayonne_council_to_consider_request_for_proposals.html","planning",-74.1082764,40.6721107,"0",NA,NA,"Bayonne, New Jersey USA","Bayonne, New Jersey USA","Bayonne","New Jersey USA"
"123","Bei'An Heihe, Heilongjiang, China - Bie'An Public Bicycle","http://www.babicycle.com/<br>http://bikes.oobrien.com/beian<br>2,000 bikes in 65 stations<br>Launch: July 10, 2014<br>Operator: North Safety Public Bicycle<br>Equipment: Eversafe Changzhou Wing","operation",126.509285,48.246054,"0","China","Asia","Bei'An Heihe, Heilongjiang, China","Bie'An Public Bicycle","Bei'An Heihe","China"
"124","Beijing (Changping,Huilongguan and Tiantongyuan Districts) Beijing, China","3,500 bikes in 109 stations<br>Launch May 18,<br>2015<br>Source: hhttp://www.jfdaily.com/shehui/new/201505/t20150518_1517737.html (http://bj.bendibao.com/zffw/2015824/199305.shtm)","operation",116.3637581,40.0864454,"0","China","Asia","Beijing (Changping,Huilongguan and Tiantongyuan Districts) Beijing, China","Beijing (Changping,Huilongguan and Tiantongyuan Districts) Beijing, China","Beijing (Changping,Huilongguan and Tiantongyuan Districts) Beijing","China"
"125","Beijing (Chaoyang District), China - Municipal Pilot","Begins March, 2010 ended October 2011<br><br>City Government pilot program using Forever Bicycles<br>Photo (http://www.facebook.com/media/set/?set=a.87800971822.102951.8085941822#!/photo.php?fbid=10150307662156823&set=a.87800971822.102951.8085941822&type=1&theater)<br><br><br>News Report (http://english.sina.com/china/p/2011/0710/380553.html)","stopped",116.446152,39.913423,"0","China","Asia","Beijing (Chaoyang District), China","Municipal Pilot","Beijing (Chaoyang District)","China"
"126","Beijing, China - Mobike","<img src=""https://lh6.googleusercontent.com/M3QUoXfOOknQZd2R4o74Gxlzb5QOXQIa6WH6dzajBr5GPRqKpdveaMJJC8v4FykL--skTQuIylolAVlHN5-XlDRoe1_1q7KVkPsMz2kTuz7Z9iUmgom8cB0AMzV46B-P"" height=""200"" width=""auto"" /><br><br>www.mobike.com<br>10,000 bikes<br>(end of Sept 2016 https://goo.gl/pfJP0P)<br>September 1, 2016<br>with 3,000 bikes<br>Source: hhttp://www.legaldaily.com.cn/index/content/2016-09/02/content_6789896.htm?node=20908","operation",116.4089441,39.9487664,"0","China","Asia","Beijing, China","Mobike","Beijing","China"
"127","Beijing, China - Municipal Public Bicycle System","Public Bicycle in Beijing<br>http://www.bjysj.gov.cn/bjggzxc/<br>http://bikes.oobrien.com/beijing/ <br>17,000 bikes in 538 stations<br>(Chaoyang: 6,000 bikes in 208 stations Launch: June 16, 2012<br>Dongchen: 5,000 bikes in 160 stations Launch: June 16, 2012<br>Xicheng: 2,000 bikes in 52 stations Launch March 2013.<br>Shijingshan: 1,000 bikes in 32 stations Launch May 10, 2013<br>Fengtai: 3,000 bikes in 91 stations Launch:May 2013 <br>Haidian: Planned) Source: http://bj.bendibao.com/zffw/2013517/103938.shtm<br>Source:(http://www.chinadaily.com.cn/xinhua/2012-06-16/content_6204052.html)<br>Photo (http://www.facebook.com/photo.php?fbid=10151057553366823&set=a.87800971822.102951.8085941822&type=3&theater)<br>Plans- 50,000 bikes in 1,000 stations by 2015 Source (http://news.youth.cn/gn/201307/t20130723_3574662.htm) Source II (http://news.china.com.cn/txt/2014-04/24/content_32196163.htm)","operation",116.435165,39.912896,"0","China","Asia","Beijing, China","Municipal Public Bicycle System","Beijing","China"
"128","Beijing (Daxing District) Beijing, China - Daxing Public Bicycle System","http://www.bjysj.gov.cn/bjggzxc/3,000 bikes in 140 sites for April 2013. Planned to increase to 10,000 bikes in 300 sites by the end of 2013<br>Launched: 2012<br><br>Source (http://www.bjnews.com.cn/news/2013/04/06/256771.html)","operation",116.338005,39.723032,"0","China","Asia","Beijing (Daxing District) Beijing, China","Daxing Public Bicycle System","Beijing (Daxing District) Beijing","China"
"129","Beijing (Fangshan District), China - Fangshan Public Bicycle","3,000 bikes in 105 stations<br>Launch February 2015<br>Source: http://www.bjjtw.gov.cn/hyfc/yyfw/201609/t20160909_145567.html","operation",116.1538124,39.7368943,"0","China","Asia","Beijing (Fangshan District), China","Fangshan Public Bicycle","Beijing (Fangshan District)","China"
"130","Beijing (Shunyi District) China - Shunyi Public Bicycle","1,600 bikes in 55 stations<br>Launch December 21, 2014<br>Source (http://beijing.qianlong.com/3825/2014/10/19/8045@9944289.htm) (http://news.163.com/14/1231/11/AEPPMMC100014SEH.html)","operation",116.658325,40.11799,"0","China","Asia","Beijing (Shunyi District) China","Shunyi Public Bicycle","Beijing (Shunyi District) China","Beijing (Shunyi District) China"
"131","Beijing (Taihuzhen, Tongzhou, Distict) China -Taihu Public Bicycle","1,000 bike in 25 stations<br>Launch: February 25, 2016<br>Source: http://www.bjtzh.gov.cn/n95/n2231951/n2232394/n2238921/c13347879/content.html","operation",116.6514587,39.8322682,"0","China","Asia","Beijing (Taihuzhen, Tongzhou, Distict) China -Taihu Public Bicycle","Beijing (Taihuzhen, Tongzhou, Distict) China -Taihu Public Bicycle","Beijing (Taihuzhen","Distict) China -Taihu Public Bicycle"
"132","Beijing, (Tongzhou District), China","20,000 bikes in 455 Stations with WiFi (December 2016)<br>10,000 bikes in 310 stations (April 2015)<br>4,000 bikes in 170 stations (September 2014) 2,000 bikes in 47 stations (October 2013)<br>Launch: May 10, 2013<br>Source:<br>(2016:http://beijing.qianlong.com/2016/1216/1222097.shtml)<br>http://www.chinanews.com/sh/2014/08-19/6506262.shtml<br>Source (http://politics.people.com.cn/n/2013/0110/c70731-20150000.html)<br>Source- April 2015 (http://news.qq.com/a/20150427/003874.htm)","operation",116.550522,39.801151,"0","China","Asia","Beijing, (Tongzhou District), China","Beijing, (Tongzhou District), China","Beijing","China"
"133","Beijing, (Yizhuang District) China - Yizhuangchen Public Bicycle","1,000 bikes in 26 locationsLaunch: december 2011","operation",116.4816,39.800953,"0","China","Asia","Beijing, (Yizhuang District) China","Yizhuangchen Public Bicycle","Beijing","(Yizhuang District) China"
"134","Beijing, China - Beijing Bicycle Rental Company","http://www.bjbr.cn/wd/wd.htm<br>Beko filed for bankruptcy in December 2010. It is in the process of re-establishing a system. It is waiting for new government approvals: February 2011","planning",116.376114,40.007369,"0","China","Asia","Beijing, China","Beijing Bicycle Rental Company","Beijing","China"
"135","Beilun, Ningbo, Zhejiang, China - Beilun Public Bicycle","2,350 bikes in 69 stations Launched January 17, 2014<br>Source (http://news.cnnb.com.cn/system/2014/01/22/007969436.shtml)","operation",121.850052,29.904949,"0","China","Asia","Beilun, Ningbo, Zhejiang, China","Beilun Public Bicycle","Beilun","China"
"136","Belfast, Northern Ireland, United Kingdom -Coca-Cola Zero Belfast Bikes","http://www.belfastbikes.co.uk/en/belfast/ (http://www.belfastcity.gov.uk/bikeshare )<br>O'brien Bike Share Map<br>(http://bikes.oobrien.com/belfast/)<br>cityBik.es Map (https://citybik.es/map/belfastbikes-belfast)<br>410 bikes in 30 stations<br>Launch: April 27, 2015<br> Source (http://www.belfasttelegraph.co.uk/news/local-national/northern-ireland/boris-bike-wheels-its-way-to-belfast-29144837.html)<br>Operator: nextbike<br>Equipment: nextbike","operation",-5.922918,54.596857,"0","United Kingdom","Europe","Belfast, Northern Ireland, United Kingdom -Coca-Cola Zero Belfast Bikes","Belfast, Northern Ireland, United Kingdom -Coca-Cola Zero Belfast Bikes","Belfast","United Kingdom -Coca-Cola Zero Belfast Bikes"
"137","Belfort, France - Optymo","http://info.optymo.fr/velo-libre-service/solution-multimodale<br>250 bikes in 29 stations<br>Launch : April 22, 2013 <br>Source (http://www.lepays.fr/territoire-de-belfort/2013/04/03/21-stations-avant-l-arrivee-de-200-velos-en-libre-service)<br>Operator: Régie des Transports du Territoire deBelfort <br>Equipment: Smoove","operation",6.863022,47.640237,"0","France","Europe","Belfort, France","Optymo","Belfort","France"
"138","Belo Horizonte, Minas Gerais, Brazil - Bike BH Itaù","http://www.movesamba.com.br/bikebh/home.asp<br>CityBik.es Map (https://citybik.es/map/bikesantos)<br>400 bike in 40 stations<br>Launch: 2014 with 40 bikes in 4 stations<br>Issues tender for 300 bikes in 30 station in November 2013Source (http://www.pedal.com.br/edital-de-concorrencia-publica-para-aluguel-de-bicicletas-e-aberto-em-bh_texto7640.html)","operation",-43.943682,-19.921309,"0","Brazil","South America","Belo Horizonte, Minas Gerais, Brazil","Bike BH Itaù","Belo Horizonte","Brazil"
"139","Bemidji, Minnesota USA - Nice ride Minnesota","Satellite program on Nice Ride Minnesota began Spring 2014 Seasonal<br>Source (http://www.bemidjipioneer.com/content/gearing-gears-nice-ride-minnesota-offer-daily-weekly-or-yearlong-bike-rentals)","operation",-94.881706,47.482641,"0","United States of America","North America","Bemidji, Minnesota USA","Nice ride Minnesota","Bemidji","Minnesota USA"
"140","Bemowo, Poland - Bemowo Bike","https://www.bemowobike.pl/<br>https://nextbike.pl/en/cities/bemowo-bike/<br>O'Brien bike share Map (http://bikes.oobrien.com/bemowo/)<br>CityBik.es Map (https://citybik.es/map/bemowo-bike)<br>100 bikes in 12 stations<br>Launch: April 1. 2012<br>Interoperable with Veturilo in Warsaw, Poland<br>Equipment: nextbike","operation",20.9117889,52.2446197,"0","Poland","Europe","Bemowo, Poland","Bemowo Bike","Bemowo","Poland"
"141","Bend, Oregon USA -","City is planning extending the University program into a City Program for 2017<br>Source:<br>http://www.bendbulletin.com/localstate/4715892-151/more-bike-share-locations-coming-in-bend","planning",-121.3122368,44.0598359,"0","United States of America","North America","Bend, Oregon USA -","Bend, Oregon USA -","Bend","Oregon USA -"
"142","Bengbu, Anhui, China -Bengbu City Public Bicycle Service","Launch: November 15, 2016 trial with 340 bikes in 10 locations<br>(http://365jia.cn/news/2016-11-16/860F523132A0A528.html)<br>To be 1,000 bikes in 40 stations<br>Planning begins March 2013 for 31 location points for system for 2013Source (http://news.hf365.com/system/2013/03/12/013017526.shtml)","operation",117.395611,32.917206,"0","China","Asia","Bengbu, Anhui, China -Bengbu City Public Bicycle Service","Bengbu, Anhui, China -Bengbu City Public Bicycle Service","Bengbu","China -Bengbu City Public Bicycle Service"
"143","Benidorm, Finestrat, La Nucia, Villajoyosa and Alfas del Pi,  Spain - Bicidorm","http://bicidorm.labici.net/<br>CityBik.es Map (https://citybik.es/map/onroll-benidorm)<br>150 bikes in 20 stations<br>Launched 2011 50 bikes in 10 stations<br>New operator Impursa October 2014 (http://portal.benidorm.org/nuevociudadano/content/benidorm-invierte-50000-euros-para-relanzar-el-servicio-bicidorm-e-incorporar-150-nuevas-bic)<br>System: Onroll","operation",-0.127544,38.538767,"0",NA,NA,"Benidorm, Finestrat, La Nucia, Villajoyosa and Alfas del Pi,  Spain","Bicidorm","Benidorm"," Spain"
"144","Benevento, Italy - BeneBike","30 pedelec bikes in 6 stationsLaunched July 29, 2014 Source (http://www.ntr24.tv/it/news/provincia-di-benevento/benevento-dopo-4-anni-dattesa-inaugurato-il-servizio-di-bike-sharing-il-2-agosto-lapertura-ufficiale-al-pubblico.html)<br>Source (http://www.ilsannioquotidiano.it/primo-piano/item/12600-bike-sharing-pronto-a-met%C3%A0-l'enel-sbaglia-i-calcoli.html) Video (http://www.ntr24.tv/it/news/provincia-di-benevento/bike-sharing-in-piazza-cardinal-pacca-spunta-la-prima-bici-ma-per-pedalare-bisognera-ancora-aspettare.html) under construction","operation",14.782448,41.130185,"0","Italy","Europe","Benevento, Italy","BeneBike","Benevento","Italy"
"145","Bensheim, Germany - VRN Nextbike","http://www.vrnnextbike.de/de/<br>50 bikes in 7 stations<br>Launch: June 2, 2016<br>System:<br>nextbike<br>","operation",8.6160278,49.6812915,"0","Germany","Europe","Bensheim, Germany","VRN Nextbike","Bensheim","Germany"
"146","Bergamo, Italy - Bigi","http://www.bicincitta.com/citta_v3.asp?id=38&pag=2<br>CityBik.es Map (https://citybik.es/map/bigi)<br>Re-activated Summer 2015 will increse to 150 bikes in 22 stations<br>(http://www.ecodibergamo.it/stories/Cronaca/riattivato-il-servizio-di-bike-sharingla-bigi-si-potra-usare-24-ore-su-24_1133749_11/)<br>(http://www.ecodibergamo.it/stories/Cronaca/72258_la_bigi_a_bergamo_si_inaugura_il_bike_sharing/)<br>Launched: May 15, 2009<br>Bikes: 120<br>Stations: 15<br>Equipment: Bicincitta","operation",9.670887,45.696229,"0","Italy","Europe","Bergamo, Italy","Bigi","Bergamo","Italy"
"147","Bergen, Norway - Byskler","City bikes are phased out according to agreement with Bergen County<br><br><br>Operator: Clear Channel","stopped",5.320129,60.388755,"0","Norway","Europe","Bergen, Norway","Byskler","Bergen","Norway"
"148","Berkeley-San Francisco, California USA ","Electric Bike Pilot bike share program to begin in 2014 through 2018Partnership ofCity CarShare,and Transportation Sustainability Research Center -UC Berkeley Institute of Transportation Studies: 90 bikes 25 stations 8 in Berkeley<br><br>Source (http://www.dailycal.org/2013/08/25/electric-bicycle-sharing-pilot-program-to-launch-in-berkeley-san-francisco-in-2014/)","planning",-122.269335,37.872279,"0","United States of America","North America","Berkeley-San Francisco, California USA ","Berkeley-San Francisco, California USA ","Berkeley-San Francisco","California USA "
"149","Bern, Switzerland= Publibike","https://www.publibike.ch/en/home.html <br>22 bikes and 21 pedelecs in 8 stations<br>Launched April 2011<br>Operator: Postbus<br>contract re-awarded: New program for 2017 2,400 bikes in 200 station 1/2 to be pedelecs http://www.derbund.ch/bern/stadt/Vergabeentscheid-fuer-Veloverleihsystem-ist-gefallen/story/15595160","operation",7.442122,46.955359,"0","Switzerland","Europe","Bern, Switzerland= Publibike","Bern, Switzerland= Publibike","Bern","Switzerland= Publibike"
"150","Berlin, Germany - Call a Bike StadtRAD","http://www.stadtradberlin.com/start.htm (http://www.callabike.de/)<br>CityBik.es Map (https://citybik.es/map/callabike-berlin)<br>1,450 bikes in 1000 stations <br>reconfigured in May 2011 with 50 stations. <br>Plans to expand to 5,000 bikes in 320 stations DB (http://www.pressrelations.de/new/standard/result_main.cfm?pfach=1&n_firmanr_=101744&sektor=pm&detail=1&r=446595&sid=&aktion=jour_pm&quelle=0)<br>Launch November 15, 2010<br>StadtRAD launch May 20, 2011<br> <br>Operator Call a Bike","operation",13.413963,52.520504,"0","Germany","Europe","Berlin, Germany","Call a Bike StadtRAD","Berlin","Germany"
"151","Berlin, Germany - nextbike","http://nextbike.de<br>O'Brien Bike Share Map (http://bikes.oobrien.com/berlin/)<br>CityBik.es Map (https://citybik.es/map/nextbike-berlin)<br>In June 2016 wins new contract for 5,000 bikes in 700<br>new stations (http://www.berliner-zeitung.de/berlin/nextbike-berlin-bekommt-700-neue-mietstationen-fuer-fahrraeder-24184156)<br>350 bikes 74 locations<br>Launched: 2007","operation",13.40332,52.520399,"0","Germany","Europe","Berlin, Germany","nextbike","Berlin","Germany"
"152","Bertioga, São Paulo, Brazil - Rivibike","<img src=""https://lh6.googleusercontent.com/proxy/YC5naT2kYyC1i94hPSqgm5AoOros2VnX39zvOuOKcZB4a9BxECM5903H_4zMt2pPWBQJwSacPPr2Du3K692WhE5kDUvy2V8ciZvEJ0-AfN3Qx8nZDDA7YAVLJ2lfb07eoNsUow"" height=""200"" width=""auto"" /><br><br>http://rivibike.compartibike.com.br/<br>45 bikes in 7 stations<br>Photo (http://www.compartibike.com.br/wp-content/uploads/2013/01/2013-02-16-12.52.11.jpg)<br>Launch: December 27, 2012<br>System: Compartibike","operation",-46.023102,-23.796968,"0","Brazil","South America","Bertioga, São Paulo, Brazil","Rivibike","Bertioga","Brazil"
"153","Besançon, France - VéloCité","http://www.velocite.besancon.fr/<br>O'Brien Bike share Map (http://bikes.oobrien.com/besancon/)<br>CityBik.es map (https://citybik.es/map/velocite-besancon)<br>200 bikes in 30 stations <br>Launched: September 2007 <br>Operator: Cyclocity","operation",6.031151,47.245212,"0","France","Europe","Besançon, France","VéloCité","Besançon","France"
"154","Beverly Hill, California, USA - Bevely Hills Bike Share","http://beverlyhillsbikeshare.com/<br>50 bikes in 7 'Hubs'<br>Launch: May 10, 2016<br>Starting pilot in Spring 2016 with Santa Monica Hulu Bike Share<br>with 50 bikes<br>Operator: Cyclehop<br>Equipment :Social Bicycles<br>Source: http://bhcourier.com/beverly-hills-news-bike-share-takes-off-with-the-entire-city-council/<br>Considering pursuing September 2012<br>Source (http://beverlyhills.patch.com/articles/bike-sharing)","operation",-118.405151,34.071715,"0","United States of America","North America","Beverly Hill, California, USA","Bevely Hills Bike Share","Beverly Hill","USA"
"155","Bezau-Schoppernau Area, Austria - nextbike","www,nextbike.at (http://www.nextbike.at/bregenzerwald.html?&L=oyisxaodfefc)<br>Regional Bregenzerwald System<br><br>100 bikes in 13 locations<br>Launched 2009<br>Operator: nextbike","operation",9.95224,47.345569,"0","Austria","Europe","Bezau-Schoppernau Area, Austria","nextbike","Bezau-Schoppernau Area","Austria"
"156","Bhopal, Madhya Pradesh, India -nextbike","2016 for a system 34 station program as a start<br>Source: http://timesofindia.indiatimes.com/city/bhopal/To-curb-pollution-BMC-to-roll-out-cycle-sharing-scheme/articleshow/50134836.cms","planning",77.4251175,23.2497647,"0","India","Asia","Bhopal, Madhya Pradesh, India -nextbike","Bhopal, Madhya Pradesh, India -nextbike","Bhopal","India -nextbike"
"157","Bialystok, Poland - BikeR","http://bikerbialystok.pl/en<br>O'Brien Bike share map (http://bikes.oobrien.com/bialystok/)<br>CityBik.es Map (https://citybik.es/map/biker-bialystok)<br>300 bikes in 36 stations<br>Launch May 31, 2014<br>Source (http://bialystok.gazeta.pl/bialystok/1,35235,15284077,A_jednak__W_kwietniu_bialostoczanie_wsiada_na_BiKeRy.html)<br>Equipment Nextbike Logo (http://www.bialystok.pl/154-szczegoly-aktualnosci/newsid/4764/default.aspx)","operation",23.165703,53.132972,"0","Poland","Europe","Bialystok, Poland","BikeR","Bialystok","Poland"
"158","Biel, Switzerland- VeloSpot","http://velospot.ch/<br>250 bikes in 40 stations<br>Stations in Bienne and Neuchâtel: Source (http://www.neuchatelroule.ch/actualites/detail-actu/detail/neuchatelroule-teste-velospot/)<br>Launch October 2010 with 50 bikes in 6 Stations<br>in test phase<br><br> <br>Operator: City of Biel","operation",7.244925,47.133016,"0","Switzerland","Europe","Biel, Switzerland- VeloSpot","Biel, Switzerland- VeloSpot","Biel","Switzerland- VeloSpot"
"159","Bielefeld, Germany - Nextbike","http://nextbike.de<br>CityBik.es Map (https://citybik.es/map/nextbike-bielefeld)<br>40 bikes 9 locations<br>Launched: 2009","operation",8.535004,52.023769,"0","Germany","Europe","Bielefeld, Germany","Nextbike","Bielefeld","Germany"
"160","Biella, Italy-Bicincittà","Bicincittà (http://www.bicincitta.com/citta_v3.asp?id=20&pag=2)<br>CityBik.es Map (https://citybik.es/map/biella)<br>4 bikes in 4 stations","operation",8.064651,45.558655,"0","Italy","Europe","Biella, Italy-Bicincittà","Biella, Italy-Bicincittà","Biella","Italy-Bicincittà"
"161","Bielsko-Biala, Poland - BBbike","https://bbbike.eu/<br>CityBik.es Map (https://citybik.es/map/bbbike)<br>130 bikes in 12 stations<br>Launch: October 1, 2014<br>(https://www.facebook.com/srmbielskobiala)<br>Equipment: Homeport<br>Source (http://bielskobiala.gazeta.pl/bielskobiala/1,88025,15273568,Pojezdzimy_rowerami_z_wypozyczalni__Nawet_za_darmo_.html)","operation",19.041023,49.819822,"0","Poland","Europe","Bielsko-Biala, Poland","BBbike","Bielsko-Biala","Poland"
"162","Bietigheim-Bissingen, Germany -Nextbike","https://e-bike-stationen.de/standorte/<br>CityBik.es Map (https://citybik.es/map/ebikestation-stuttgart-germany-bietigheim-bissingen)<br>8 bikes and 9 pedelecs in 1 station<br>Launch: October 18, 2013<br>Source: https://e-bike-stationen.de/blog/2013/10/18/erste-e-bike-station-in-bietigheim-bissingen-startet/","operation",9.1369343,48.9490555,"0","Germany","Europe","Bietigheim-Bissingen, Germany -Nextbike","Bietigheim-Bissingen, Germany -Nextbike","Bietigheim-Bissingen","Germany -Nextbike"
"163","Bilboa, Spain - Bilbon Bizi","Bilbon Bizi (http://www.bilbao.net/cs/Satellite/agenda21/Servicio-Prestamo-de-Bicicletas-Bilbon-Bizi/es/100078677/Contenido_Detalle)<br>Photo (http://www.facebook.com/photo.php?fbid=10150214817521823&set=a.8086461822.24231.8085941822&theater)<br>260 bikes<br>Launched April 2011<br>Operator: Ayuntamiento de Bilbao","operation",-2.935002,43.263066,"0","Spain","Europe","Bilboa, Spain","Bilbon Bizi","Bilboa","Spain"
"164","Binzhou, Shandong, China","500 bikes in 30 stations<br>September 9, 2013<br>Equipment: EversafeSource (http://binzhou.iqilu.com/bzyaowen/2013/0825/1643835.shtml)","operation",117.977028,37.384344,"0","China","Asia","Binzhou, Shandong, China","Binzhou, Shandong, China","Binzhou","China"
"165","Birmingham, Alabama USA - ","https://www.zypbikeshare.com/<br>First mixed Pedelec program in USA<br>300 bikes and 100 pedelecs in 40 stations Launch: October 14, 2015<br>with 25 stations<br>Source: http://ow.ly/TpGKG (http://tiny.cc/duoaxx)<br>Issues RFP in November 2014 for minimum of 250 bikes in 25 stations for late summer 2015 Source (http://www.rpcgb.org/about-the-rpcgb/doing-business/rfp/bikeshare-program-capital-technology-and-support-services/)<br>www.birminghambikeshare.com (http://www.birminghambikeshare.com/)The Regional Planning Commission undertook a feasibility study July 2013<br>Source (http://news.alabamapower.com/2013/06/27/planners-considering-public-bike-share-program-for-birmingham/)","operation",-86.812592,33.524224,"0","United States of America","North America","Birmingham, Alabama USA - ","Birmingham, Alabama USA - ","Birmingham","Alabama USA - "
"166","Blackpool, England - Cycle Blackpool","Did not reopen in 2014 In negotiations to reopen Source (http://www.blackpoolgazette.co.uk/news/business/local-business/council-cycle-hire-scheme-scaled-back-after-losses-1-7264722)<br>www.hourbike.com (http://www.hourbike.com/mysitecaddy/site3/locukblackpool.htm)<br>OBrien Bike Share Map (http://bikes.oobrien.com/blackpool/)<br>33 stations <br>Launch: September 2009<br>Operator: Hourbike","stopped",-3.053427,53.814183,"0",NA,NA,"Blackpool, England","Cycle Blackpool","Blackpool","England"
"167","Blagoveshchensk, Russia","250 bikes in 12 stations<br>Launch: September 25, 2015<br>(http://www.amur.info/news/2015/09/12/99751)<br>Program to begin April 2016<br>Plans to increase program by 10 fold<br>Access card to be compatible with the Program in Heihe, Heilongjiang, China across the border fom the Chinese Company Yun Ahn- Eversafe<br>Source:<br>http://www.teleport2001.ru/teleport2001-ru/2015-09-07/68546-punkty-veloprokata-zarabotayut-v-blagoveshchenske-11-sentyabrya.html (http://www.teleport2001.ru/administraciya-goroda-blagoveshchensk/2015-05-05/63082-vpervye-v-blagoveshchenske-poyavitsya-obshchestvennyy-veloprokat.html)","operation",127.5389099,50.2700323,"0","Russia","Europe","Blagoveshchensk, Russia","Blagoveshchensk, Russia","Blagoveshchensk","Russia"
"168","Blumenau, Brazil - Samba","Terminated in early 2011<br>Possible new system in 2012 Source (http://www.gazetadopovo.com.br/turismo/conteudo.phtml?id=1109043) http://www.mobilicidade.com.br/<br>Fleet: 60 bikes and 6 stations<br>Launched September 22, 2009<br>System: Sertel","stopped",-49.065628,-26.917784,"0","Brazil","South America","Blumenau, Brazil","Samba","Blumenau","Brazil"
"169","Bochum, Germany - metropolradruhr","www.metropolradruhr.de <br>O'Brien Bike Share map (http://bikes.oobrien.com/bochum/)<br>CityBik.es Map (https://citybik.es/map/metropolradruhr-germany-bochum)<br>40 bikes 6 stations<br>Launch: July 14, 2010<br>Operator Metropolradruhr in conjunction with next bike","operation",7.216215,51.482532,"0","Germany","Europe","Bochum, Germany","metropolradruhr","Bochum","Germany"
"170","Bogotá, Colombia","The tender award was finally decided in Spring 2015 to Bicibogatá,. There will be, in phase 1,<br>1,454 bikes in 113 stations<br>Source: (http://www.elespectador.com/noticias/bogota/asi-van-bicicletas-publicas-bogota-articulo-566111)<br>Tender closes November 2014 with responses<br>As of September 2014 there were no acceptable responses (http://www.pulzo.com/bogota/208521-todavia-no-arrancan-las-bicicletas-publicas-luego-de-6-meses-de-la-publicacion-de) for 2,948 bikes in 281 stations<br> <br>July 2014 Possible postponement on bidding for a 2,851 bike - 84 station program. Source (http://www.elespectador.com/noticias/bogota/bicicletas-publicas-aun-borrador-articulo-505567) Wer3 to open bids in November 2013 for an integrated with transit system with 1,600 bikesin 150 stations Source (http://www.caracol.com.co/noticias/bogota/hasta-80000-costaria-membrecia-anual-de-bicicletas-publicas/20131107/nota/2010641.aspx)<br>Special Pilot Program November 1-11, 2011<br>Source: Movilidad (http://www.movilidadbogota.gov.co/?sec=346) Video (http://www.youtube.com/watch?v=dkbxSWuEi2A&feature=player_embedded)","planning",-74.09729,4.643498,"0","Colombia","South America","Bogotá, Colombia","Bogotá, Colombia","Bogotá","Colombia"
"171","Boise, Idaho USA - Boise Green Bike","http://boise.greenbike.com/<br>http://boisebikeshare.org/<br>O'Brien Bike Share Mao (http://bikes.oobrien.com/boise/)<br>278 bikes in 26 stations<br>Launch: May 23, 2015<br>Operator::Valley Regional Transit System<br>Equipment: SoBi.<br><br>2015 Source (http://www.idahostatesman.com/2014/05/03/3166399/federal-grant-complications-boise.html?sp=/99/101/&ihp=0)<br>2014 Source (http://www.idahostatesman.com/2014/02/18/3035161/boise-bike-share-shifts-gears.html)<br>2013 Source (http://www.idahostatesman.com/2013/12/27/2945455/catching-up-with-prepare-to-pedal.html)<br>2012 Source (http://www.boiseweekly.com/CityDesk/archives/2012/10/06/boise-bike-share-program-on-tuesday-city-council-agenda) <br>2011 Source (http://www.idahostatesman.com/2011/11/16/1881318/central-district-health-lays-the.html)","operation",-116.207542,43.616939,"0","United States of America","North America","Boise, Idaho USA","Boise Green Bike","Boise","Idaho USA"
"172","Bonn, Germany","City is planning in 2016 to study feasibility for a program before 2020<br>Source: http://www.general-anzeiger-bonn.de/region/sieg-und-rhein/hennef/Bonner-Fahrradverleihsystem-kommt-nicht-in-die-G%C3%A4nge-article3260170.html","planning",7.095623,50.7386279,"0","Germany","Europe","Bonn, Germany","Bonn, Germany","Bonn","Germany"
"173","Bordeaux, France -  V³","http://www.vcub.fr/<br>OBrien Bike Share Map (http://bikes.oobrien.com/?city=bordeaux)<br>Launch: February 22, 2010<br>Fleet: 1,500 bikes and 139 stations","operation",-0.560303,44.837369,"0","France","Europe","Bordeaux, France"," V³","Bordeaux","France"
"174","Borgarello, Pavia, Italy - Bicincittà","http://bicincitta.tobike.it/frmLeStazioni.aspx?ID=45<br>CityBik.es (https://citybik.es/map/bicincitta-borgarello)<br>Summer 2105<br>21 bikes in 3 stations<br>Source: http://www.vogheranews.it/wp/2015/05/borgarello-19052015-pronte-le-stazioni-di-bike-sharing-ma-lattivazione-del-servizio-si-rischia-di-andare-fine-estate-colpa-di-complesso-bando-la-manutenzione-delle-bici-il-sindaco-per/","operation",9.1402817,45.2388769,"0","Italy","Europe","Borgarello, Pavia, Italy","Bicincittà","Borgarello","Italy"
"175","Borgomanero, Italy - Bicincittà","http://bicincitta.com/citta.asp?id=7","operation",8.462906,45.698986,"0","Italy","Europe","Borgomanero, Italy","Bicincittà","Borgomanero","Italy"
"176","Boston, Brookline, Somerville and Cambridge, Massachusetts USA - The Hubway","www.thehubway.com<br>OBrien Bike Share Map (http://bikes.oobrien.com/?city=boston)<br>CityBik.es Map (https://citybik.es/map/hubway) 1,490 bikes in 169 stations<br>Regional System with Boston, Cambridge, Somerville and Brrokline<br>1,300 bikes in 132 stations- Fall 2013<br>Launch: July 28, 2011 with 600 Bicycles in 61 Stations <br>System: PBSC<br>Operator: Motivate","operation",-71.05957,42.326062,"0","United States of America","North America","Boston, Brookline, Somerville and Cambridge, Massachusetts USA","The Hubway","Boston","Massachusetts USA"
"177","Bottrop, Germany - metropolradruhr","http://www.metropolradruhr.de <br>O'Brien Bike Share Map (http://bikes.oobrien.com/bottrop/)<br>CityBik.es Map (https://citybik.es/map/metropolradruhr-germany-bottrop)<br>16 Stations<br>Part of Metropolradruhr /neXtbike","operation",6.92791,51.524979,"0","Germany","Europe","Bottrop, Germany","metropolradruhr","Bottrop","Germany"
"178","Boulder, Colorado USA - Boulder B-Cycle","http://boulder.bcycle.com/<br>OBrien Bike Share Ma (http://bikes.oobrien.com/?city=boulder)<br>CityBik.es Map (https://citybik.es/map/boulder)<br>277 bikes in 42 stations<br>Launch: May 20, 2011 with 85 bikes in 12 stations Planning expansion by July 2014 130 more bikes in new 13 stations Source (http://www.bcbr.com/article/20140319/NEWS/140319910):<br>Operator: Boulder B-Cycle<br>Equipment B-cycle","operation",-105.265675,40.020516,"0","United States of America","North America","Boulder, Colorado USA","Boulder B-Cycle","Boulder","Colorado USA"
"179","Bra, Italy - Bicincittà","http://bicincitta.com/citta.asp?id=14<br>CityBik.es Map (https://citybik.es/map/bra)<br>3 bikes in 5 stations<br>Launch: September 20, 2007<br>Equipment and Operator: Bicincittà","operation",7.852993,44.69764,"0","Italy","Europe","Bra, Italy","Bicincittà","Bra","Italy"
"180","Braga, Portugal","Considering a program during 2016 with a minimum of 1,200 bikes in 72 stations<br>Source: http://www.correiodominho.com/noticias.php?id=92811","planning",-8.4328651,41.5481585,"0","Portugal","Europe","Braga, Portugal","Braga, Portugal","Braga","Portugal"
"181","Brasília, Brazil - Bike Brasilia Itaù","<img src=""https://lh6.googleusercontent.com/proxy/IsUGV_0m0K6trK90t5yrzUqQuaIQR3EXbyChE5Jf8iiLKT1kZ5V3mvR-kLTeYMexuh6Qtka-oKCuK45w0f66gfFEwRkJQHeamXIDSYC1d04w0xc_aFDuNtLzpAxcnmxZ-SqX"" height=""200"" width=""auto"" /><br><br>http://www.bikebrasilia.com/<br>CityBik.es Map (https://citybik.es/map/bikebrasilia)<br>400 bikes in 40 stations <br>Launch: May 28, 2014 with 100 bikes in 10 stations for the 2014 World Cup Soccer Matches.<br>The expand in the 2nd part of 2014 to 300 more bikes in 30 more stations Source (http://www.caubr.gov.br/?p=23955)","operation",-47.92717,-15.78036,"0","Brazil","South America","Brasília, Brazil","Bike Brasilia Itaù","Brasília","Brazil"
"182","Bratislava, Slovakia","Initial tender offer March 2012<br>Financial situation slows deployment<br>In interim, 50 bike community program <br>www.whitebikes.info (http://www.whitebikes.info/)<br>Source (http://www.thedaily.sk/2012/03/20/top-news/bratislava-calls-tender-for-city-bike-system/)<br>Possible system in 2014 Source II (http://www.skyscrapercity.com/showthread.php?s=8d3386863ea765664b4c2c548080865a&p=107523559#post107523559)","planning",17.111206,48.145014,"0","Slovakia","Europe","Bratislava, Slovakia","Bratislava, Slovakia","Bratislava","Slovakia"
"183","Braunschweig, Germany -","In August 2016, City Office of Transportation plans for a program similar to Kassel , Germany<br>Source: http://regionalbraunschweig.de/fahrradverleihsystem-ausbau-soll-weiterverfolgt-werden/","planning",10.5258465,52.2671594,"0","Germany","Europe","Braunschweig, Germany -","Braunschweig, Germany -","Braunschweig","Germany -"
"184","Brescia, Italy - BiciMia","http://www.bicimia.it/ <br>CityBik.es Map (https://citybik.es/map/bicimia)<br>600 bikes in 72 stations <br>Launch: June 2008 with 27 stations<br>Operator: Bicincittà (http://www.bicincitta.com/citta_v3.asp?id=21)<br>Source (http://www.quibrescia.it/cms/2014/03/05/bicimia-al-top-a-brescia-piace-pedalare/)","operation",10.223465,45.539782,"0","Italy","Europe","Brescia, Italy","BiciMia","Brescia","Italy"
"185","Bridgeport, Connecticut USA","Planning <br>Received planning<br>funding Febraury 2013<br>Source (http://www.ctpost.com/local/article/City-hopes-to-start-a-bike-sharing-program-3540680.php)","planning",-73.18903,41.178848,"0","United States of America","North America","Bridgeport, Connecticut USA","Bridgeport, Connecticut USA","Bridgeport","Connecticut USA"
"186","Brig, Switzerland - Publibike","https://www.publibike.ch/en/home.htm (https://www.publibike.ch/en/home.html)l<br><br>8 bikes in 1 station<br>Launched October 2011<br>Operator: Postbus","operation",7.986267,46.318644,"0","Switzerland","Europe","Brig, Switzerland","Publibike","Brig","Switzerland"
"187","Brighton &amp; Hove, England, United Kingdom","To begin in June 2017 with Hourbike as the operator with Social Bicycle equipment (http://www.brighton-hove.gov.uk/content/press-release/brighton-hoves-new-bike-share-scheme-track-summer)City councilors approve plan for 2017<br>to start 430 bikes in 50<br>stations<br>Source: http://www.itv.com/news/meridian/update/2015-03-26/boris-bikes-coming-to-brighton-and-hove/ (http://www.bbc.com/news/uk-england-sussex-34910076)","planning",-0.141449,50.8235054,"0","United Kingdom","Europe","Brighton &amp; Hove, England, United Kingdom","Brighton &amp; Hove, England, United Kingdom","Brighton &amp; Hove","United Kingdom"
"188","Brindisi, Italy - Brindisi by Bike","www.bicincitta.com <br>CityBik.es Map (https://citybik.es/map/brindisi)<br>60 bikes in 5 Station<br>Launch: October 16, 2014<br>Equipment: Bicincittà<br>Source: (http://www.brindisireport.it/cronaca/tutto-pronto-per-il-progetto-brindisi-by-bike-installate-le-colonnine-in-citta.html)","operation",17.942562,40.636232,"0","Italy","Europe","Brindisi, Italy","Brindisi by Bike","Brindisi","Italy"
"189","Brinje, Croatia","Planning a small 2-3 station program for 2016","planning",15.1305127,44.9986897,"0","Croatia","Europe","Brinje, Croatia","Brinje, Croatia","Brinje","Croatia"
"190","Brisbane, Australia - CityCycle","www.citycycle.com.au <br>OBrien Bike Share Map (http://bikes.oobrien.com/?city=brisbane)<br>CityBik.es Map (https://citybik.es/map/citycycle)<br>Launched: October 1, 2010<br>Bikes: 2,000 - Stations: 150<br>Provider: JCDecaux","operation",153.027878,-27.467269,"0","Australia","Australia","Brisbane, Australia","CityCycle","Brisbane","Australia"
"191","Bristol, England UK - Hourbike","Terminated June 2010<br>Began<br>January 2009<br>18 bikes in 4 stations<br>http://www.hourbike.com/mysitecaddy/site3/locukbristol.htm","stopped",-2.5914081,51.4578579,"0","United Kingdom","Europe","Bristol, England UK","Hourbike","Bristol","England UK"
"192","Bristol, England, United Kingdom","Plans underway after grant for Pedelec program for 2016 Source: http://www.bristolpost.co.uk/Boris-style-bikes-come-Bristol/story-28163959-detail/story.html","planning",-2.5817871,51.4578577,"0","United Kingdom","Europe","Bristol, England, United Kingdom","Bristol, England, United Kingdom","Bristol","United Kingdom"
"193","Brno, Czech Republic -","Planning a program with 1000 bikes in 10 stations for 2017","planning",16.605835,49.1992048,"0","Czech Republic","Europe","Brno, Czech Republic -","Brno, Czech Republic -","Brno","Czech Republic -"
"194","Brownsville, Harlingen &amp; Edinburg, Texas USA - Bike Share Rio Grande Valley","http://bike.zagster.com/rgvbikeshare/<br>85 bikes in 16 stations<br>Launch September 1, 2016<br>Equipment: Zagster<br>(http://www.utrgv.edu/en-us/about-utrgv/news/press-releases/2016/september-02-pedals-to-the-metal-utrgv-students-help-put-bike-sharing-program-in-high-gear/index.htm)<br>Planning 30 bikes in 6 stations for fall 2016<br>Source: http://www.brownsvilleherald.com/premium/article_ee93f484-64e9-11e6-876b-779aff18120a.html","operation",-97.4974823,25.9020047,"0","Mexico","South America","Brownsville, Harlingen &amp; Edinburg, Texas USA","Bike Share Rio Grande Valley","Brownsville","Texas USA"
"195","Brussels, Belgium - Villo!","http://www.villo.be/ (http://www.cyclocity.be/)<br>OBrien Bike Share Map (http://bikes.oobrien.com/brussels/)<br>CityBik.es Map (https://citybik.es/map/villo)<br>4,200 bikes in 346 Stations (February 2016)<br>3,650 bikes in 330 Stations (March 2014)<br>To increase to 5000 bikes in 19 Districts of greater Brussels in 2014<br>Launched: March 2009<br>Expanded July 2010 (2,500 bikes - 180 stations)<br>Operator JCDecaux","operation",4.364662,50.838685,"0","Belgium","Europe","Brussels, Belgium","Villo!","Brussels","Belgium"
"196","Bucaramanga, Colombia - ","Planning a program for 2017 with 60 to 120 bikes in 6 to 10 stations<br>Source: ( http://www.vanguardia.com/area-metropolitana/bucaramanga/379395-en-2017-haran-6-km-de-ciclorrutas-y-proyecto-de-bicicletas-pub) http://www.vanguardia.com/area-metropolitana/bucaramanga/345884-asi-funcionaria-el-primer-sistema-de-bicicletas-publicas-en-bu","planning",-73.1101513,7.1154143,"0","Colombia","South America","Bucaramanga, Colombia - ","Bucaramanga, Colombia - ","Bucaramanga","Colombia - "
"197","Bucharest, Romania","In August 2016, Mayor to issue a tender for a new citywide program:<br>Souce : http://www.business-review.eu/news/bucharest-mayor-we-will-launch-an-international-tender-for-a-bike-sharing-service-114647","planning",26.1042023,44.4372119,"0","Romania","Europe","Bucharest, Romania","Bucharest, Romania","Bucharest","Romania"
"198","Bucharest, Romania - i'velo","http://www.ivelo.ro/<br>210 bikes in 6 stations<br>Re-launch September 27, 2016<br>(http://www.romania-insider.com/automated-bike-rental-service-launches-bucharest/ - fully automated)<br>Launch: April 7, 2012 with 300 bikes in 3 stations <br>(Although the system originally began in 2010, it is now electronic and bikes can be taken at one station and returned to another for the first time)","operation",26.084375,44.453297,"0","Romania","Europe","Bucharest, Romania","i'velo","Bucharest","Romania"
"199","Bucharest, Romania - Cicloteque","http://translate.google.com/translate?hl=en&sl=ro&u=http://www.maimultverde.ro/cicloteque&prev=/search%3Fq%3Dmaimultverde%26hl%3Den%26sa%3DG","operation",26.117935,44.427896,"0","Romania","Europe","Bucharest, Romania","Cicloteque","Bucharest","Romania"
"200","Budapest, Hungary - BuBi","http://www.bkk.hu/bubi/<br>O'Brien Bike Share Map (http://bikes.oobrien.com/budapest/)<br>CityBik.es Map (https://citybik.es/map/bubi)<br>1,150 bikes and 98 stations<br>Launch: September 8, 2014 with 1,100 bikes and 76 stations<br>MOL Petroleum Company to be lead sponsor Photo (http://www.xpatloop.com/news/first_photos_of_bubi_public_bike-sharing_scheme_in_budapest)<br>www.bubi.nextbike.hu/ (http://www.bubi.nextbike.hu/en/budapest/)<br>Equipment: nextbike - new on-board computer","operation",19.05304,47.491921,"0","Hungary","Europe","Budapest, Hungary","BuBi","Budapest","Hungary"
"201","Buenos Aires, Argentina - Ecobici","http://www.buenosaires.gob.ar/ecobici/sistemaecobici<br>CityBik.es Map (https://citybik.es/map/ecobici-buenos-aires)<br>1,400 bikes in100 stations (December 2016)<br>1,000 bikes in 88 stations (September 2016) <br>950 bikes in 53 stations (October 2015)<br>Launched: December 1, 2010 as pilot with<br>100 bikes in 3 stations as Mejor en Bici<br>To expand to mixed manned-automated 3,000 bikes in 200 stations with Serttel<br>First automatic station installed February 2015<br>850 bikes in 32 stations (January 2015)<br>Source: (http://www.infobae.com/2015/02/20/1628124-el-gobierno-la-ciudad-inauguro-el-nuevo-sistema-automatico-ecobici)(http://www.devotomagazine.com.ar/files/nota2012.asp?id=2517)<br>Issued new tender in October 2013<br>Operated by the City of Buenos Aries<br>Information on Ecobici (http://www.contextonacional.com.ar/nota/106145/el-bicing-seguira-siendo-gratis-y-se-podra-usar-las-24-horas.html) for next year","operation",-58.414307,-34.617387,"0","Argentina","South America","Buenos Aires, Argentina","Ecobici","Buenos Aires","Argentina"
"202","Buffalo, New York USA -Reddy Bikeshare","https://reddybikeshare.socialbicycles.com/ http://www.buffalobikeshare.org/<br>http://www.buffalo.edu/sustainability/working-green/bicycle-sharing.html<br>200 Bikes in 30 Hubs <br>Re-launch: July 21, 2016<br>Originally Launched: March 2013 with 25 bikes at the University of Buffalo as a ""Closed System"" Will relaunch summer of 2016 as Ready Bike with 200 bikes(http://www.bizjournals.com/buffalo/news/2016/03/21/new-buffalo-bike-share-coming-this-summer-with-200.html)","operation",-78.873768,42.887411,"0","United States of America","North America","Buffalo, New York USA -Reddy Bikeshare","Buffalo, New York USA -Reddy Bikeshare","Buffalo","New York USA -Reddy Bikeshare"
"203","Bulle, Switzerland - Velopass","http://velopass.ch/fr/velopass-velos-en-libre-service-suisse/reseaux/bulle<br>8 bikes in 2 stations<br>Launched 2011","operation",7.061119,46.617139,"0","Switzerland","Europe","Bulle, Switzerland","Velopass","Bulle","Switzerland"
"204","Burghausen, Germany - Nextbike","http://www.nextbike.de/burghausen0.html<br>11 bicycles and 13 ebikes in 3 Stations<br>Launched: April 27, 2012<br>Operator: Nextbike","operation",12.831173,48.173355,"0","Germany","Europe","Burghausen, Germany","Nextbike","Burghausen","Germany"
"205","Burgos, Spain - BiciBur","http://bicibur.es/<br>75 bikes in 20 Stations (55 bikes in reserve)<br>Launched in 2006 with 60 bikes in 19 Stations<br>System Bicicard ICTL","operation",-3.705826,42.340275,"0","Spain","Europe","Burgos, Spain","BiciBur","Burgos","Spain"
"206","Burjassot (Valencia), Spain - Burjabike","www.mibisi.es (http://www.mibisi.es)<br>56 bikes in 8 stations<br>Launched: 2010<br>Operator: MOVUS<br>System: MIBISI<br>(Launched 2009. with 19 bikes in 4 stations by ITCL / TEVASEÑAL)","operation",-0.410925,39.509363,"0","Spain","Europe","Burjassot (Valencia), Spain","Burjabike","Burjassot (Valencia)","Spain"
"207","Busan, Korea - Dynamic Busan","http://u-bike.busan.go.kr/<br>300 bikes in 15 stations<br>Launched: October 25, 2010<br>System U Bike","operation",129.175444,35.171984,"0","South Korea","Asia","Busan, Korea","Dynamic Busan","Busan","Korea"
"208","Busto Arsizio, Italy - Bicincittà","Bicincittà (http://bicincitta.tobike.it/frmLeStazioni.aspx?ID=53)<br>CityBik.es Map (https://citybik.es/map/bici-in-busto)<br>50 bikes in 9 stations<br>Launched: April 14, 2012 (50 bikes 7 stations)<br>System: Bicincittà<br>Source (http://www3.varesenews.it/busto/bike-sharing-ogni-bici-costa-oltre-550-euro-all-anno-283873.html)","operation",8.854122,45.612837,"0","Italy","Europe","Busto Arsizio, Italy","Bicincittà","Busto Arsizio","Italy"
"209","Byblos, Lebanon","Opening a program in 2016 with 100 bikes in 10 stations","planning",35.6474161,34.1207225,"0","Lebanon","Asia","Byblos, Lebanon","Byblos, Lebanon","Byblos","Lebanon"
"210","Bydgoszcz, Poland, - Bydgoski Rower Aglomeracyjny","https://www.bra.org.pl/<br>CityBik.es Map (https://citybik.es/map/bikeu-bra)<br>364 bikes in 39 stations<br>Launch: April 1, 2015<br>Source: http://express.bydgoski.pl/330931,Od-kwietnia-rusza-Bydgoski-Rower-Aglomeracyjny-CENNIK-JAK-KORZYSTAC.html<br>Operator: Homeport<br>Equipment: Homeport","operation",18.0141449,53.126174,"0","Poland","Europe","Bydgoszcz, Poland,","Bydgoski Rower Aglomeracyjny","Bydgoszcz","Poland,"
"211","Cáceres, Spain - Bicci","Launched 2009. Ends 2014<br>12 stations, 60 bikes.<br>Operator: ITCL","stopped",-6.370869,39.47531,"0","Spain","Europe","Cáceres, Spain","Bicci","Cáceres","Spain"
"212","Cagliari, Italy - Bicincittà","Bicincittà (http://www.bicincitta.com/citta_v3.asp?id=65&pag=2)<br>CityBik.es Map (https://citybik.es/map/cagliari)<br>35 pedal bikes and 35 pedelecs in 10 stations<br>Relaunched in April 2014 Source (http://www.sardanews.it/11080-bike-sharing-2-0-ecco-le-nuove-stazioni-a-cagliari-bici-in-affitto)<br>Launched: October 10, 2010 with 35 bikes in 4 stations<br>Operator: Bicincittà<br>Source (http://www.ufficiostampacagliari.it/reportage.php?pagina=85&sottopagina=351)","operation",9.113331,39.218423,"0","Italy","Europe","Cagliari, Italy","Bicincittà","Cagliari","Italy"
"213","Caen, France - V'eol Caen","http://www.veol.caen.fr/<br>350 bikes in 40 stations<br><br>System: SmartBike <br>Operator: Clear Channel","operation",-0.362549,49.186865,"0","France","Europe","Caen, France","V'eol Caen","Caen","France"
"214","Cádiz (Universidad), Spain - Tubici","Tubici launched 2008. Ends 2014 3 stations, 50 bikes. GREEN POWER / ITCL","stopped",-6.292419,36.530329,"0",NA,NA,"Cádiz (Universidad), Spain","Tubici","Cádiz (Universidad)","Spain"
"215","Calais, France - VéI'in","http://www.vel-in.fr (http://www.vel-in.fr/)<br>OBrien Bike Share Map (http://bikes.oobrien.com/?city=calais)<br>CityBik.es Map (https://citybik.es/map/vel-in)<br>210 bikes in 35 stations (May 2013)<br>Launched: July 17, 2010<br>Fleet: 160 bikes and 18 stations<br> <br><br> <br>Operator SITAC- Veloway","operation",1.853085,50.9594,"0","France","Europe","Calais, France","VéI'in","Calais","France"
"216","Calgary, Alberta Canada","planning<br>City Council exploring funding during 2012<br>Possible 400 bike in 40 station if approved<br>Source (http://www.metronews.ca/calgary/local/article/1080921--wheels-still-turning-on-bike-sharing-program)","planning",-114.055939,51.038803,"0","Canada","North America","Calgary, Alberta Canada","Calgary, Alberta Canada","Calgary","Alberta Canada"
"217","Cali, Colombia","Planning a program for 2017<br>Source: http://www.noticiascaracol.com/cali/metrocali-confirma-que-para-el-2017-cali-tendra-las-primeras-bicicletas-publicas (http://www.elpais.com.co/elpais/cali/noticias/estan-dispuestos-calenos-dejar-moto-o-carro-por-bicicleta)","planning",-76.5264702,3.4532792,"0","Colombia","South America","Cali, Colombia","Cali, Colombia","Cali","Colombia"
"218","Cambridge, North Island, New Zealand - Nextbike","http://www.nextbike.co.nz/en/cambridge/<br>CityBik.es MAP (https://citybik.es/map/nextbike-cambridge)<br>4 bikes in 2 stations<br>Launch October 11, 2014<br>Operator: Nextbike New Zealand","operation",175.4708862,-37.8884023,"0","New Zealand","Australia","Cambridge, North Island, New Zealand","Nextbike","Cambridge","New Zealand"
"219","Cameri, Italy - Bicincittà","http://bicincitta.com/citta.asp?id=8","operation",8.660316,45.501534,"0","Italy","Europe","Cameri, Italy","Bicincittà","Cameri","Italy"
"220","Campinas, São Paulo, Brasil - Viva Bike","Contract terminated March 10 2013 Source (http://correio.rac.com.br/_conteudo/2013/02/capa/campinas_e_rmc/30616-prefeitura-de-campinas-suspende-o-projeto-viva-bike.html)https://www.brasilemovimento.com.br/pt-br/home.aspx<br>125 bikes in 9 stations (December 2012)<br>Launched September 22, 2012 (100 bikes in 4 stations<br>Source (http://www.itu.com.br/regiao/noticia/viva-bike-campinas-tem-2330-cadastrados-em-dez-dias-20121004)","stopped",-47.050323,-22.889934,"0","Brazil","South America","Campinas, São Paulo, Brasil","Viva Bike","Campinas","Brasil"
"221","Canberra, Australian Capital Territory, Australia - Spinway","www.spinwaycanberra.com.au/<br>8 bikes in 2 stations<br>Launch September 18, 2014<br>At 2 Hotels -open to the public<br>Equipment:<br>Sanvault.<br>Parliament had considered scheme to ease automobile parking at Capital May 2013<br>Source (http://www.canberratimes.com.au/act-news/bike-hire-mooted-to-beat-the-parking-pain-20130528-2n9z0.html)","operation",149.124169,-35.308051,"0","Australia","Australia","Canberra, Australian Capital Territory, Australia","Spinway","Canberra","Australia"
"222","Cancún, Quintana Roo, Mexico - Ecobici","Program scheduled to begin February 2017 with 120 Clear Channel bikes in 10 stations to eventully have 1,500 bikes in 72stations (http://eleconomista.com.mx/estados/2016/12/07/cancun-tendra-ecobici-2017)Considering in August 2016 a plan for a 63 station program Source: http://sipse.com/novedades/planean-63-estaciones-de-bicicletas-publicas-en-el-centro-transporte-motorizado-ciclistas-transito-cancun-217284.html","planning",-86.8489838,21.1658435,"0","Mexico","South America","Cancún, Quintana Roo, Mexico","Ecobici","Cancún","Mexico"
"223","Canterbury, England, United Kingdon","Considering at the end of 2015 a public cyclehire program with new city re-development<br>Source: http://www.inquirelive.co.uk/news/article-14299/development-plans-to-turn-south-canterbury-into-garden-city/","planning",1.0801792,51.271152,"0","United Kingdom","Europe","Canterbury, England, United Kingdon","Canterbury, England, United Kingdon","Canterbury","United Kingdon"
"224","Can Tho, Viet Nam","Studying for a pilot program (February 2014)<br>Source (http://english.vietnamnet.vn/fms/society/95155/five-cities-to-pilot-public-bicycle-rental-services.html)","planning",105.779457,10.039514,"0","Vietnam","Asia","Can Tho, Viet Nam","Can Tho, Viet Nam","Can Tho","Viet Nam"
"225","Cantù, Italy - Bicincittà","Bicincittà (http://www.bicincitta.com/citta_v3.asp?id=69&pag=2)<br>CityBik.es Map (https://citybik.es/map/biciamo) 15 bikes in 3 stations<br>Launched August 2010<br>System Bicincittà","operation",9.12921,45.740214,"0","Italy","Europe","Cantù, Italy","Bicincittà","Cantù","Italy"
"226","Cape Town, South Africa","Completed Feasibility Study. Aims for a program in 2015Source (http://www.liveeco.co.za/2013/08/26/cape-town-becomes-a-bike-friendly-city/)","planning",18.423901,-33.922779,"0","South Africa","Africa","Cape Town, South Africa","Cape Town, South Africa","Cape Town","South Africa"
